business_status,formatted_address,lat,lng,name,region,photos,ratings,user_ratings_total,types,country,price
OPERATIONAL,"2125 Victoria Ave, Regina SK S4P 0S3",50.446918,-104.611472,"The Hotel Saskatchewan, Autograph Collection",SK,https://fastly.4sqi.net/img/general/original/8821552_S4KOZR_2ZM5j4WPS8-hnl5dX8QaSg_jBiZC98K_Q56U.jpg,4.1,66,Hotel,saskatchewan,250
OPERATIONAL,Lloydminster SK,53.277728,-110.004908,Alberta-Saskatchewan Border,SK,https://fastly.4sqi.net/img/general/original/ONAbUHq6WZmAELCfDPUxUgWokD0zFQryoa-PDVuwGd0.jpg,2.2,149,Travel and Transportation,saskatchewan,1120
OPERATIONAL,"10120 86 Ave, Fort Saskatchewan AB T8L 0N6",53.69965,-113.201029,Holiday Inn Express & Suites Fort Saskatchewan,AB,https://fastly.4sqi.net/img/general/original/87388367_rEK9aXCgB9j80LFfeCETRdvs8t2wuQRRxZ088YNw1Ls.jpg,2.9,362,Lodging,saskatchewan,580
OPERATIONAL,"2903 Powerhouse Dr, Regina SK S4N 0A1",50.432877,-104.594276,Saskatchewan Science Centre,SK,https://fastly.4sqi.net/img/general/original/17954634_K6Knna1THCT7kxL-tJzX9EVimN08IoGr_QCskHHpH4k.jpg,4.4,256,Science Museum,saskatchewan,1820
OPERATIONAL,"11242 88 Ave, Fort Saskatchewan AB T8L 3W5",53.710259,-113.191257,Sentinel Storage - Fort Saskatchewan,AB,https://fastly.4sqi.net/img/general/original/87388367_o-vTEva2n0HHFEo3Yx2NvPh701wt-39cHIdlQa2HUrk.jpg,2.6,273,Storage Facility,saskatchewan,1110
OPERATIONAL,"8709 101 St, Fort Saskatchewan AB T8L 0H9",53.699093,-113.203043,Hampton Inn by Hilton Fort Saskatchewan,AB,https://fastly.4sqi.net/img/general/original/87388367_BpyurnbNTy9gDS73So2JnFUT4cnxd-AzzKdHMCB6X6I.jpg,4.5,381,Lodging,saskatchewan,1220
OPERATIONAL,"9820 86 Ave, Fort Saskatchewan AB T8L 4P4",53.697377,-113.20751,The Kanata Inns Fort Saskatchewan,AB,https://fastly.4sqi.net/img/general/original/87388367_Q1LMc40VJ9ZRl4WdLneyHU4hsOutQGC7hyZ6oT45PHk.jpg,1.1,305,Lodging,saskatchewan,1500
OPERATIONAL,"9382 Southfort Dr, Fort Saskatchewan AB T8L 0C5",53.693562,-113.215353,Marble Slab Creamery - Fort Saskatchewan,AB,https://fastly.4sqi.net/img/general/original/1387296051_whel9-_nl-WpWyMHGhB6ecBanyj9dLw8mwVVGdaxgoM.jpg,4.4,221,Lodging,saskatchewan,190
OPERATIONAL,"3100 Idylwyld Service Rd, Saskatoon SK S7K 5Y6",52.129679,-106.665721,Saskatchewan Rush Lacrosse Club,SK,https://fastly.4sqi.net/img/general/original/43242250_nJzErBV4y8nJMFzg5xLnAEDbFK2OtusdO7qdAWfWcOo.jpg,3.3,107,Office,saskatchewan,1670
OPERATIONAL,"2317 Arlington Ave, Saskatoon SK S7J 2H8",52.101414,-106.61119,Saskatchewan Teachers' Federation,SK,https://fastly.4sqi.net/img/general/original/4146692_WyQvOibBk-gCs2N-SBgQmU3fRqT5pAsCW9cdYMsTWx8.jpg,3.2,304,tourist,saskatchewan,790
OPERATIONAL,"335 Brand Rd, Saskatoon SK S7J 5L4",52.087352,-106.649432,Porsche Centre Saskatchewan,SK,https://fastly.4sqi.net/img/general/original/24802552_LPUt697loKAp5nwHMFWtkdsutMvZmG2y4mCV52FEFhY.jpg,1.4,66,Car Dealership,saskatchewan,1450
OPERATIONAL,"2001 Chaplin St E, Swift Current SK S9H 5A8",50.286465,-107.772872,Saskatchewan Hockey Hall of Fame,SK,https://fastly.4sqi.net/img/general/original/697637_ul6LY-Ia-z7kB6aFoNDpsqrfRnE7DIKbneKY4U7upQw.jpg,3.6,172,Museum,saskatchewan,1230
OPERATIONAL,"125 Normandy Rd (Range Rd.), Whitehorse YT Y1A 3C6",60.735318,-135.094199,The Saskatchewan Embassy,YT,https://fastly.4sqi.net/img/general/original/77241_8YIipqiF0DMEP-ltjI5ftc23CNzM6oAEkq-PyIhG_VM.jpg,1.5,118,Embassy / Consulate,saskatchewan,170
OPERATIONAL,"10 Research Dr, Regina SK S4S 7J7",50.466692,-104.600742,Saskatchewan Information Svc,SK,https://fastly.4sqi.net/img/general/original/1329614_vRdBpyGHUrHqYBYaFh04uEFJ52GE_Y2_haGhd480D2c.jpg,1.1,356,Government Department / Agency,saskatchewan,1400
OPERATIONAL,Regina SK,50.455282,-104.617545,Saskatchewan Roughriders Office,SK,https://fastly.4sqi.net/img/general/original/36494018_eYVnbOQWvvhcT0ipAt1UzxoiBmyF9yZfrroKY4GJCQk.jpg,3.9,346,Office Building,saskatchewan,1790
OPERATIONAL,"1621 Albert St (at 9th Ave), Regina SK S4P 2S5",50.453202,-104.61762,Tourism Saskatchewan,SK,https://fastly.4sqi.net/img/general/original/14593952_lqWlJopQq0s-szS1HhRv_njPSmNKQNw-iaO-G5vriSs.jpg,3.9,182,Tourist Information and Service,saskatchewan,1830
OPERATIONAL,"111 Wascana Gate N, Regina SK S4V 2J6",50.4209,-104.541604,Regina Saskatchewan Temple,SK,https://fastly.4sqi.net/img/general/original/2338137_avHfpJJQbMJ4ZtYJMUvhtMrgP7-4ogF14Jl-T4Avc0U.jpg,4.8,217,Church,saskatchewan,780
OPERATIONAL,"3773 Prince Edward St (at E 21st Ave), Vancouver BC V5V 3Y3",49.251721,-123.09746,Prince Edward Park,BC,https://fastly.4sqi.net/img/general/original/31577531_4PLfXbtPSG0AI3rRGuPn2aHSkrZzaVomXBmCal6YsWM.jpg,1.9,347,Park,Prince Edward Island,1870
OPERATIONAL,"990 Closson Rd (btwn Benway Rd & Chase Rd), Hillier ON K0K 2J0",43.99286,-77.412478,The Grange of Prince Edward Vineyards and Estate Winery,ON,https://fastly.4sqi.net/img/general/original/137522355_Yk8FyZTc2CZfHPGU6xbut7T_icdKgJWBqJFUIb39SfA.jpg,4.4,486,Vineyard,Prince Edward Island,1320
OPERATIONAL,Greenwich PE,46.443352,-62.693815,Greenwich Prince Edward Island National Park,PE,https://fastly.4sqi.net/img/general/original/2496598_PyR4FmUVr6gqLWGN9W7gLCmkvg9WoIkXROrtHSPSr3E.jpg,4.4,242,National Park,Prince Edward Island,470
OPERATIONAL,"2 Palmers Lane (btwn Mount Edward Rd. & Vic Campbell Blvd.), Charlottetown PE C1A 5V8",46.252459,-63.127648,Prince Edward Island National Park,PE,https://fastly.4sqi.net/img/general/original/35891232_qPA14VfBU7YnAs4DrRbjt_FfDMzAIZwKPf7ddpRJWsA.jpg,3.9,174,National Park,Prince Edward Island,720
OPERATIONAL,"18 Queen St (Water Street), Charlottetown PE C1A 4A1",46.231695,-63.124127,Delta Hotels by Marriott Prince Edward,PE,https://fastly.4sqi.net/img/general/original/31887071_Fs8ZJ6wflKeVbbHkNRHW7-WWZtNfSJw7jB1rkbGKfmk.jpg,2.2,164,Lodging,Prince Edward Island,1890
OPERATIONAL,North Rustico PE,46.457401,-63.309962,"North Rustico, Prince Edward Island",PE,https://fastly.4sqi.net/img/general/original/501199876_WCPnGm2W9zflA2x59wG5eXnEbso2XaWUEYBhcHnrvvI.jpg,4.7,246,Scenic Lookout,Prince Edward Island,700
OPERATIONAL,"40 Dalvay Cres, York PE C0A 1P0",46.415728,-63.074046,Prince Edward Island National Park,PE,https://fastly.4sqi.net/img/general/original/50105800_RT9_rkMjgqv-QwuQkU68PPNJzafuV8LElH358_na9Cs.jpg,2.1,122,National Park,Prince Edward Island,900
OPERATIONAL,"550 University Ave (at Belvedere Ave.), Charlottetown PE C1A 4P3",46.258308,-63.140854,University of Prince Edward Island,PE,https://fastly.4sqi.net/img/general/original/60552063_xgOjjeV3J-8r4G1mdQoS_B7uPk1nL3f6oePdZ8LDvDI.jpg,1.2,299,College and University,Prince Edward Island,1600
OPERATIONAL,"3 Haviland St, Charlottetown PE C1A 3S7",46.230055,-63.128258,"The Prince Edward Island Regiment Museum, Charlottetown",PE,https://fastly.4sqi.net/img/general/original/64177_ZcVu2UECHR_m63fD7O9pDMHs33xDKVtkb1eRKDFEKFw.jpg,4.8,495,Military Base,Prince Edward Island,1340
OPERATIONAL,"100 Hydro Dam Rd (Trans Canada Highway 11/17), Kakabeka Falls ON P0T 1W0",48.402843,-89.624797,Kakabeka Falls Provincial Park,ON,https://fastly.4sqi.net/img/general/original/Pj1gYSv_B3CPPjR870PGrMId5i5j6lUOENThD7qCVt8.jpg,2.5,358,State / Provincial Park,Ontario,1990
OPERATIONAL,"RR 1 (Hwy 11-17), Silver Islet ON P0T 2M0",48.432066,-88.762767,Sleeping Giant Provincial Park,ON,https://fastly.4sqi.net/img/general/original/413124_bd_GchTO565Z_O63wT_YMlFKxPZZmE053LD2374ekjs.jpg,3.3,404,Natural Park,Ontario,1320
OPERATIONAL,"960 Hwy 637, Killarney ON P0M 2A0",46.012325,-81.401777,Killarney Provincial Park,ON,https://fastly.4sqi.net/img/general/original/21932324_fV27X-TH7tSXyZVWLE2LLR5D6huJOfjHOGjtkXCcDa4.jpg,3.2,137,National Park,Ontario,580
OPERATIONAL,"35 Killbear Park Rd (End Highway 559), Nobel ON P0G 1G0",45.433821,-80.012815,Killbear Provincial Park,ON,https://fastly.4sqi.net/img/general/original/7842386_Ed5GiYX3KmMKDGjAhprhHaFSTeBnP56JB6kSVSTdmYA.jpg,1.7,340,Campground,Ontario,1500
OPERATIONAL,"9526 Lakeshore Rd (26 Sideroad), Grand Bend ON N0M 1T0",43.248616,-81.843012,Pinery Provincial Park,ON,https://fastly.4sqi.net/img/general/original/16384348_OloLIGeto8uUxM9GOQpBpc3RSVCV1AgyLfosGfPELas.jpg,2.8,134,State / Provincial Park,Ontario,1180
OPERATIONAL,"451 Arrowhead Park Rd, Huntsville ON P1H 2J4",45.391632,-79.214833,Arrowhead Provincial Park,ON,https://fastly.4sqi.net/img/general/original/LoKtjja-J251wb-d37mJddrh6KgK50ubnMKl44kgTk8.jpg,2.6,498,Campground,Ontario,690
OPERATIONAL,"3201 Upper Middle Rd W (at QEW), Oakville ON L6M 4G5",43.417843,-79.765735,Bronte Creek,ON,https://fastly.4sqi.net/img/general/original/BSXaHiL9iK21Nv9nwj54b5Imheyy0WSVhaZOrFaVuOs.jpg,1.8,117,Campground,Ontario,1850
OPERATIONAL,"328 Presqu'ile Pky, Brighton ON K0K 1H0",44.010708,-77.744826,Presqu'ile Provincial Park,ON,https://fastly.4sqi.net/img/general/original/65966678_lZLXAjbspB9FmhCvmRYDBCP_AmSLwR8uveqPBwaXe70.jpg,1.1,136,State / Provincial Park,Ontario,1530
OPERATIONAL,"209415 Hwy 26, Blue Mountains ON",44.536519,-80.348752,Craigleith Provincial Park,ON,https://fastly.4sqi.net/img/general/original/3674643_ko2RGYsVdivIohFVb1NZuKnyM2OjAmhmUOLDWfx5MtE.jpg,1.3,322,State / Provincial Park,Ontario,1680
OPERATIONAL,"670 Concession 18 E, Penetanguishene ON L9M 2G2",44.840791,-80.010172,Awenda Provincial Park,ON,https://fastly.4sqi.net/img/general/original/483533638_cGepUs-rGUrW95d0JI7JlgP1qZglXN5VAJsp0DOIuOo.jpg,2.2,128,State / Provincial Park,Ontario,790
OPERATIONAL,"296 County Rd 7 (btw Chuckery Hill Rd & Bradley Crossroads), Picton ON K0K 2T0",44.039896,-77.056511,Lake on the Mountain Provincial Park,ON,https://fastly.4sqi.net/img/general/original/120083844_cCm2Cde5c-jTEtaXKtf2-t1su0Ej6_2SsP-aCGvc5d4.jpg,3.8,193,State / Provincial Park,Ontario,1760
OPERATIONAL,"Hwy 7, Frontenac ON",44.77644,-76.724878,Sharbot Lake Provincial Park,ON,https://fastly.4sqi.net/img/general/original/18890215_NPwS7z-Ti9uMn3zFb-GT_UdmeBBhBHrvq_74V8b8CE4.jpg,4.6,374,Campground,Ontario,210
OPERATIONAL,"48 2238 Hwy (at Hwy. 48), Kawartha Lakes ON",44.625498,-78.857263,Balsam Lake Provincial Park,ON,https://fastly.4sqi.net/img/general/original/13620417_f-kYFlyF9ts2s3aV0l7GIjDC7w2fVJ8fEpU8ayLZLx0.jpg,1.6,386,Campground,Ontario,640
OPERATIONAL,"20400 522 Hwy (Hwy 69), Britt ON P0G 1A0",45.774837,-80.556052,Grundy Lake Provincial Park,ON,https://fastly.4sqi.net/img/general/original/47286217_F7CYoPNpgFIQxoleNNW1cY3ijuMfhR9BoaXTNw-ILpQ.jpg,1.3,120,State / Provincial Park,Ontario,1210
OPERATIONAL,"5201 Canon Smith Dr, Fitzroy Harbour ON K0A 1X0",45.482904,-76.209315,Fitzroy Provincial Park,ON,https://fastly.4sqi.net/img/general/original/33368838_O35MtYoP26LBEevIX-yWmTeUHCt_YreqjriEUMRNLuQ.jpg,2.3,369,Campground,Ontario,1380
OPERATIONAL,"350 Erie Blvd, Norfolk ON N0E 1M0",42.581276,-80.395533,Long Point Provincial Park,ON,https://fastly.4sqi.net/img/general/original/1220145_PxWMxPQtOajaxJJYfAHoCBpdf2vebsOsceiLQS3aQQU.jpg,3.7,437,Park,Ontario,1520
OPERATIONAL,Shelburne ON,44.04651,-80.072762,Mono Cliffs Provincial Park,ON,https://fastly.4sqi.net/img/general/original/13620417_P-K1Ze_ZZZnp82ivdO8HRQO_B5TcHXnV8a65UAwW7IA.jpg,2.8,257,State / Provincial Park,Ontario,830
OPERATIONAL,"26465 York Rd 18 (Hwy #48 and Park Road), Sutton ON L0E 1R0",44.330989,-79.331678,Sibbald Point Provincial Park,ON,https://fastly.4sqi.net/img/general/original/45558431_qZSTx1WrHfcXQ_n9jWSklZPFzJPZY61ZmH0w_sh8yTM.jpg,4.7,296,Park,Ontario,1390
OPERATIONAL,"RR 1, Cloyne ON K0H 1K0",44.897996,-77.19641,Bon Echo Provincial Park,ON,https://fastly.4sqi.net/img/general/original/2568246_dkA8ZexE6PLl3q58yDMjI6Ptd_X7AKF3NhyDEMlqP-U.jpg,3.7,435,Landmarks and Outdoors,Ontario,1540
OPERATIONAL,"2024 Joe King's Rd, Kilworthy ON L0K 1S0",44.894416,-79.752683,Six Mile Lake Provincial Park,ON,https://fastly.4sqi.net/img/general/original/33885107_FsZ7dhGycelYWGZVQVys2A1E0rM6TtHvShwTohtKbj0.jpg,2.6,193,State / Provincial Park,Ontario,1100
OPERATIONAL,Ontario,44.335248,-78.534518,Emily Provincial Park,Ontario,https://fastly.4sqi.net/img/general/original/12267301_dKFmVj87g6WJqrI-1Zwn8jqU-xWgbDr_YCUdZCzCqyI.jpg,2.6,499,State / Provincial Park,Ontario,390
OPERATIONAL,"9 Wilson Lane, Port Burwell ON N0J 1T0",42.646007,-80.810811,Port Burwell Provincial Park,ON,https://fastly.4sqi.net/img/general/original/8313045_ml53zQJ6BYdRAGYgHTbUUDPEy7MNRjBk8iTxspzzeb8.jpg,1.8,90,Government Department / Agency,Ontario,440
OPERATIONAL,"21116 Klondyke Rd S, Wheatley ON N0P 2P0",42.089971,-82.44733,Wheatley Provincial Park,ON,https://fastly.4sqi.net/img/general/original/1022834_2lvyewt4TnK0tBeNIObikOICHdtTkxq9lGxagmMtqhw.jpg,4.4,181,State / Provincial Park,Ontario,670
OPERATIONAL,"479 Government Rd, Dryden ON P8N 3K9",49.758506,-92.652163,Aaron Provincial Park,ON,https://fastly.4sqi.net/img/general/original/222729681_VtEl_8XJSXsLRbxVTXbnycdFwvO95Erl0Cn92hGRbaI.jpg,4.2,79,State / Provincial Park,Ontario,1640
OPERATIONAL,"1313 Front Rd, Chute A Blondeau ON K0B 1B0",45.558456,-74.418576,Voyageur Pronvincial Park,ON,https://fastly.4sqi.net/img/general/original/130911668_piNwigL_KfbeyX56aOY7Z73ZDZhlYgIaa4KUtqbyWlI.jpg,4.9,173,Campground,Ontario,860
OPERATIONAL,"Ouimet Canyon Rd, Dorion ON",48.754153,-88.592849,Ouimet Canyon Provincial Park,ON,https://fastly.4sqi.net/img/general/original/3459284_REfgTIYE8rNWg_f7DwA1JmHEXf_wl4sg8lsEbJs_Nss.jpg,1.5,134,State / Provincial Park,Ontario,870
OPERATIONAL,Mobert ON P0M 2J0,48.696483,-85.647913,White Lake Provincial Park,ON,https://fastly.4sqi.net/img/general/original/48513245_bHJJavHRZym8fnN5bTsgfVwGY48eOARxyVqauqhpagQ.jpg,1.9,110,Campground,Ontario,1010
OPERATIONAL,Elliot Lake ON,46.625266,-82.805005,Mississagi Provincial Park,ON,https://fastly.4sqi.net/img/general/original/2688571_HRxhCKq7-Smil9dREfvuAi1k6tW8P4JNiy6kkCv6Fk8.jpg,1.2,206,Campground,Ontario,1580
OPERATIONAL,"Old Cartier Rd, Onaping ON P0M 2R0",46.622232,-81.456522,Windy Lake Provincial Park,ON,https://fastly.4sqi.net/img/general/original/13347456_1RfVlUSDa4m3HWcC31qtivJAtX2uFemH9MKrFZUPt5I.jpg,4.1,301,Park,Ontario,960
OPERATIONAL,"700 Imperial St, Massey ON P0P 1P0",46.218518,-82.076903,Chutes Provincial Park,ON,https://fastly.4sqi.net/img/general/original/60551056_Z54UAo98CkSRCPDpFXyetGsyn0Q37-iUKQfOKq4tIIY.jpg,4.7,461,Campground,Ontario,620
OPERATIONAL,Sudbury ON,46.468824,-81.439692,Fairbanks Provincial Park,ON,https://fastly.4sqi.net/img/general/original/24796150_XUxrywCMvVXAkawXLlCzCl4ip89ud0L6-0uhtSiVATA.jpg,4.8,253,Campground,Ontario,1660
OPERATIONAL,"2860 Hwy 11 N, Marten River ON P0H 1T0",46.722866,-79.812206,Marten River Provincial Park,ON,https://fastly.4sqi.net/img/general/original/34518757_owZkmHbWcgS3xFFyOgnttKVOG1qSXicor0xadLSnsok.jpg,1.3,286,State / Provincial Park,Ontario,250
OPERATIONAL,"RR 2 (at Hwy 69), Alban ON",46.016032,-80.583943,French River Provincial Park,ON,https://fastly.4sqi.net/img/general/original/6826866_1QtCgSDYGAGlV1JdrNoLD-24N8u4v2cJ8LZW1cRY8Yc.jpg,4.5,281,Parking,Ontario,1940
OPERATIONAL,Ontario,45.927993,-80.554078,White Pine Campground,Ontario,https://fastly.4sqi.net/img/general/original/12337722_vnvaCIVC3hQ6ImHaqhOpV4vzaVzJxfRnM7o4NrhdYhg.jpg,1.7,261,Campground,Ontario,1200
OPERATIONAL,Ontario,45.924755,-80.555726,Smokey Point,Ontario,https://fastly.4sqi.net/img/general/original/12337722_pchFDAHIOfSOjIhaEBwx9_qfs1qCt1aZoL9gobgPJu0.jpg,4.4,258,Landmarks and Outdoors,Ontario,640
OPERATIONAL,Pointe au Baril Station ON,45.623301,-80.416194,Sturgeon Bay Provincial Park,ON,https://fastly.4sqi.net/img/general/original/161250_5q8dp0pV30WJjEBkw19eMRaXk0vDeGzLaX8m9wyLBtA.jpg,4.3,241,State / Provincial Park,Ontario,1530
OPERATIONAL,"380 Oastler Park Dr, Parry Sound ON P2A 2W8",45.312167,-79.964162,Oastler Lake Provincial Park,ON,https://fastly.4sqi.net/img/general/original/889093_VWXoLsmx-fQMg0PfhbjsvlqbdicEws9JuuwjjTqiUZg.jpg,2.4,245,State / Provincial Park,Ontario,650
OPERATIONAL,"19 Jordan Rd, Tiverton ON N0G 2T0",44.299653,-81.588169,Inverhuron Provincial Park,ON,https://fastly.4sqi.net/img/general/original/7561030_koG9GIxmk8d2wYLkPMtW7IySuo2qA7Ty54e9nC2lnxw.jpg,1.4,246,State / Provincial Park,Ontario,1850
OPERATIONAL,Stonecliffe ON K0J 2K0,46.189695,-77.842047,Driftwood Provincial Park,ON,https://fastly.4sqi.net/img/general/original/39677_GSC4EUYj9-GmDzO3nHjoX5Rc1sNq7nV64ldZpliuYec.jpg,1.4,472,Playground,Ontario,1890
OPERATIONAL,"82491 Bluewater Hwy (Golf Course Rd.), Goderich ON N7A 3X9",43.804034,-81.71727,Point Farms Provincial Park,ON,https://fastly.4sqi.net/img/general/original/69156844_UatwZRlnE2X8btDJlIhVIriW58VBJmRpQEjw10X3RUs.jpg,4.9,283,State / Provincial Park,Ontario,200
OPERATIONAL,"213 Bedford Hwy, Halifax NS B3M 2J9",44.675824,-63.647762,Feed Nova Scotia,NS,https://fastly.4sqi.net/img/general/original/4Kl63cWG9RYSG__PaR7hZ2w2ufBdyuywRsJpAoWpQcg.jpg,2.3,237,Public and Social Service,Nova Scotia,510
OPERATIONAL,"210 Thomas Raddall Dr, Halifax NS B3S 0J2",44.656455,-63.660256,Soccer Nova Scotia,NS,https://fastly.4sqi.net/img/general/original/3531553_aHAyM6FTrtjH4OPJXz627zYSYthD6Dzh2HN2cyZyRhM.jpg,4.3,267,Soccer Field,Nova Scotia,370
OPERATIONAL,"1723 Hollis St, Halifax NS B3J 1V9",44.647996,-63.572724,Art Gallery of Nova Scotia,NS,https://fastly.4sqi.net/img/general/original/79614690_OsICV1r0Yc5dKO4z5rhkWDHyvk1Cn16e2GhfmgqBF8s.jpg,4.1,202,Art Gallery,Nova Scotia,1490
OPERATIONAL,"12215 Hwy 215, Urbania NS B0N 2H0",45.198992,-63.40775,Tidal Bore Rafting Park and Cottages - Nova Scotia,NS,https://fastly.4sqi.net/img/general/original/11850839__KF_Nyu8A9T-xdXBmrkOdEjKumL93TxgNbr-Xm9QA5I.jpg,2.9,95,Cottage / Cabin,Nova Scotia,1590
OPERATIONAL,Shelburne NS,43.777539,-65.339733,"Shelburne, Nova Scotia",NS,https://fastly.4sqi.net/img/general/original/1657447_Vb7S9zr-6nUNO53IG4Intg076TJhzKDCjN8qhoC_59s.jpg,3.4,323,Harbor / Marina,Nova Scotia,1690
OPERATIONAL,"139 Park Rd, Elmsdale NS B2S 2L3",44.973759,-63.516183,Nova Scotia Association of Community Business Development Corporations,NS,https://fastly.4sqi.net/img/general/original/6265338_EgE28Pb1QhLJj4nYxNmNQHi0OWx23YCPVuFSDkS2ZaA.jpg,2.7,311,tourist,Nova Scotia,130
OPERATIONAL,"486 Sackville Dr, Lower Sackville NS B4C 2R8",44.765404,-63.680795,Access Nova Scotia,NS,https://fastly.4sqi.net/img/general/original/4253011_nMylZyD8W3iZa7f475c2F7Sa06aeHCrTmB5zp9tchgg.jpg,4.1,448,Post Office,Nova Scotia,1390
OPERATIONAL,"127 Shore Rd, Brooklyn NS B0J 1H0",44.049671,-64.688616,Outdoor Nova Scotia,NS,https://fastly.4sqi.net/img/general/original/11850839_lZCo76mMRptHCbTzN7YMc38Ur71gEKY5E5Ko3iMfdzI.jpg,3.6,403,Travel and Transportation,Nova Scotia,390
OPERATIONAL,"90 Gloria McCluskey Ave, Dartmouth NS B3B 2B9",44.722087,-63.593246,Central Nova Scotia Correctional Facility,NS,https://fastly.4sqi.net/img/general/original/42325752_zDOTFPAOZ6jgiarakGURy0YjQlAuoSoMvJpNJqVnfRI.jpg,4.4,219,Police Station,Nova Scotia,1490
OPERATIONAL,"230 Brownlow Ave, Dartmouth NS B3B 0G5",44.696282,-63.580829,Efficiency Nova Scotia,NS,https://fastly.4sqi.net/img/general/original/52840237_grB2No9T-m3-Zlo5CBRvHUACloOqtnMH_5VTstRxt5s.jpg,1.4,235,Non-Profit Organization,Nova Scotia,1630
OPERATIONAL,"5516 Spring Garden Rd, Halifax NS B3J 1G6",44.653181,-63.578117,Music Nova Scotia,NS,https://fastly.4sqi.net/img/general/original/2502799_Lop2HrTuYqkhN5y0phNi0PmnJ-sEpg7ShQYMm_lxOQ8.jpg,4.5,261,Music Venue,Nova Scotia,1410
OPERATIONAL,"1959 Upper Water St, Halifax NS B3J 3N2",44.651806,-63.574343,"Regus - Nova Scotia, Halifax - Purdy's Wharf",NS,https://fastly.4sqi.net/img/general/original/20273343_cLam1Mbn3lkCadcViaiC9uTi_GbSYASVBe7RBub6vy4.jpg,2.2,368,Business and Professional Services,Nova Scotia,1530
OPERATIONAL,"6016 University Ave (Robie St), Halifax NS B3H 1W4",44.637774,-63.585938,Nova Scotia Public Archives,NS,https://fastly.4sqi.net/img/general/original/380775_G0z0rjyY-yp2vFnushMk2yKbxMA3lrAdj9J5PpqUt5I.jpg,4.9,95,Government Department / Agency,Nova Scotia,1160
OPERATIONAL,"1575 Brunswick St, Halifax NS B3J 2G1",44.644979,-63.575413,Canada Business Nova Scotia,NS,https://fastly.4sqi.net/img/general/original/29586841_49_uPkVKT98AlZP-UEYSYd3xAXwgUREbKCtf--AzE5s.jpg,3.4,150,Government Department / Agency,Nova Scotia,1830
OPERATIONAL,"1341 Summer St (University Avenue), Halifax NS B3H 4K4",44.639813,-63.58203,Nova Scotia Rehabilitation Centre,NS,https://fastly.4sqi.net/img/general/original/65531180_Uwlgs0yR4v9cjAK_iMotW3dWLul2ZPTWriBFZjRj-6c.jpg,3.9,447,Health and Medicine,Nova Scotia,830
OPERATIONAL,"1505 Barrington St, Halifax NS B3J 3K5",44.645036,-63.57207,Nova Scotia Labour Standards,NS,https://fastly.4sqi.net/img/general/original/431_04XsaVgirP8-fnsYHnEkRinNHL2v12eKD5ps_YxKRSE.jpg,2.8,316,Government Building,Nova Scotia,360
OPERATIONAL,"1355 Barrington St, Halifax NS B3J 1Y9",44.642876,-63.571638,Association of Professional Engineers of Nova Scotia,NS,https://fastly.4sqi.net/img/general/original/15311420_fSkekOa209lSEQhwAtgACVmBY-Luv3C70aBX6JkzTqE.jpg,3.6,321,Engineer,Nova Scotia,1780
OPERATIONAL,"1223 Lower Water St, Halifax NS B3J 3S8",44.641865,-63.568264,Nova Scotia Power Inc,NS,https://fastly.4sqi.net/img/general/original/20273343_bQlBlSH51J3bX0wgrPz9EpOpkcNHsfSZXcHHhcM31f0.jpg,2.2,182,Electrical Equipment Supplier,Nova Scotia,510
OPERATIONAL,"250 Baker Dr (at Millstone Sqr.), Dartmouth NS B2W 6L4",44.656872,-63.531128,Access Nova Scotia,NS,https://fastly.4sqi.net/img/general/original/33016104_dbLFtnob4Uqh60KsJ22IboZoxKmefOQzvtSORGcqqJY.jpg,4.7,240,Government Department / Agency,Nova Scotia,1510
OPERATIONAL,"96 Hwy 4, Port Hastings NS B9A 1M4",45.646764,-61.405539,Nova Scotia Visitor Information Centre - Port Hastings,NS,https://fastly.4sqi.net/img/general/original/501199876_npnAv3-JGB2xMzZrcgnDzz6ODlLWMAVAUUQLWhXqn9o.jpg,4.4,125,Tourist Information and Service,Nova Scotia,1740
OPERATIONAL,"525 George St, Sydney NS B1P 1K5",46.13674,-60.19086,Casino Nova Scotia,NS,https://fastly.4sqi.net/img/general/original/2421758_N4gmNAEemBUgz8LuENQLaKPnEs5Fs7TGqDN8KO0XUSE.jpg,1.4,341,Casino,Nova Scotia,830
OPERATIONAL,"11455 87 Ave NW, Edmonton AB T6G 2T2",53.521908,-113.528779,Northern Alberta Jubilee Auditorium,AB,https://fastly.4sqi.net/img/general/original/5576552_woxOdDkFoseuGJyuWLiqlvKnszXTX3TEcrAb7_H6s8s.jpg,3.9,352,Concert Hall,Alberta,1350
OPERATIONAL,"1415 14 Ave NW (at 14th St.), Calgary AB T2N 1M4",51.06251,-114.092526,Southern Alberta Jubilee Auditorium,AB,https://fastly.4sqi.net/img/general/original/geRpT-a3yglpF-KZ1YSVwpMePCON_xP1dyVVa-g4k3o.jpg,3.8,177,Concert Hall,Alberta,780
OPERATIONAL,"16675 109 Ave NW, Edmonton AB T5P 4K8",53.55528,-113.609023,"Home2 Suites by Hilton West Edmonton, Alberta, Canada",AB,https://fastly.4sqi.net/img/general/original/711993_wRYKTddVRwb-dyUV3MhqVAmNOT4Dk24rrMvusVL367A.jpg,3.4,246,Lodging,Alberta,1120
OPERATIONAL,"2021 100 Ave NE, Calgary AB T3J 0R3",51.142656,-114.01201,"Homewood Suites by Hilton Calgary-Airport, Alberta, Canada",AB,https://fastly.4sqi.net/img/general/original/166918687_jZFv5juWgO8rqzpRLOSRJAoJmCOuLKwhfaY58KiuYYE.jpg,3.9,66,Lodging,Alberta,1610
OPERATIONAL,Lloydminster SK,53.277728,-110.004908,Alberta-Saskatchewan Border,SK,https://fastly.4sqi.net/img/general/original/39117971_OUDCUGuWGYx5lSTNH5554vcWx_j3VS4VKFfemZnNTE8.jpg,4.9,325,Travel and Transportation,Alberta,1980
OPERATIONAL,"11613 87 Ave NW, Edmonton AB T6G 2H6",53.522386,-113.530665,Lister Centre - University of Alberta,AB,https://fastly.4sqi.net/img/general/original/37065173_CslIqokR-2_6eVyVvtMLS_p54hmEdNUyi1UKa4pBsQo.jpg,1.5,374,College Residence Hall,Alberta,1460
OPERATIONAL,"2801 Bow Valley Trail (Legacy Trail), Canmore AB T1W 3A2",51.106648,-115.366383,Travel Alberta Information,AB,https://fastly.4sqi.net/img/general/original/132141793_uIjk9SYlcJp0oNXdJEbmp3h-F-w-1SyYpvuIrZJXsj8.jpg,3.6,70,Tourist Information and Service,Alberta,720
OPERATIONAL,"7196 Temple Dr NE (52nd St), Calgary AB T1Y 4E8",51.091053,-113.957529,Alberta King of Subs,AB,https://fastly.4sqi.net/img/general/original/409040_V5IIzYIBVG01o32SEqdHpfW3Z0miqIONW9LoZMVeHEU.jpg,1.4,495,Deli,Alberta,1670
OPERATIONAL,"9810 103A Ave NW, Edmonton AB T5J 0G2",53.546923,-113.49087,Royal Alberta Museum,AB,https://fastly.4sqi.net/img/general/original/27865498__rvYEBwcWoE1LDtRRXzqmYyc28R4sK_H-vKI_kJyncc.jpg,2.7,286,Museum,Alberta,1790
OPERATIONAL,"10310 G.A.MacDonald Ave NW (Calgary Trail), Edmonton AB T6J 6R7",53.476447,-113.492861,Alberta Motor Association,AB,https://fastly.4sqi.net/img/general/original/9811632_friIPI91lF9_VbtoCg0zGllTVv8Y6YVgewVMtyfa3Ao.jpg,3.4,324,Automotive Retail,Alberta,1130
OPERATIONAL,"5040 Manning Dr NW (N. of Safeway gas station), Edmonton AB T5A 5B4",53.601924,-113.419986,Alberta Motor Association - AMA,AB,https://fastly.4sqi.net/img/general/original/12253458_FiK2ioSPA4dLNPWLYwxBJqzVLTFUEJZRgtErhucYmfk.jpg,2.5,137,Automotive Retail,Alberta,940
OPERATIONAL,"10230 Jasper Ave NW (3-600 Enterprise Square), Edmonton AB T5J 4P6",53.54066,-113.497967,University of Alberta International Office,AB,https://fastly.4sqi.net/img/general/original/v0QJH-m0LlB0Cqlt7z06nC9aqXJdIIpSmnP1kEcrpZM.jpg,3.8,64,College Administrative Building,Alberta,1920
OPERATIONAL,Edmonton AB T5K 2N6,53.536147,-113.506877,Capital Plaza at the Alberta Legislature Grounds,AB,https://fastly.4sqi.net/img/general/original/7863816_jM4hgqvQF3Ss-UMnZ2JoJruOU2P-sp4P7H0KdVOo0GU.jpg,3.2,328,Plaza,Alberta,1060
OPERATIONAL,"116 St and 85 Ave, Edmonton AB T6G 2R3",53.52321,-113.526016,University of Alberta,AB,https://fastly.4sqi.net/img/general/original/29802925_ANNcEk61rt4IWIKqBYtX1N2vys-FtYmuRLXPACL6JnM.jpg,1.8,100,College and University,Alberta,1320
OPERATIONAL,"110 St (88 Ave), Edmonton AB",53.52419,-113.516222,East Campus Village - University of Alberta,AB,https://fastly.4sqi.net/img/general/original/36384653_Ivvw9n1TndWp-b5Y4uf-BQgMQwy7kcfuYB5BX3kgaPs.jpg,1.9,57,College Residence Hall,Alberta,1790
OPERATIONAL,"34 Van Vliet Ctr (114 St & 87 Ave), Edmonton AB",53.524142,-113.527119,University of Alberta - Physical Education and Recreation,AB,https://fastly.4sqi.net/img/general/original/30757898_hJ_xRsWwnAYkoj6v3cXV-LKBGkzx0mo16py-5bgdn8I.jpg,4.4,73,College Gym,Alberta,610
OPERATIONAL,"6240 113 St NW, Edmonton AB T6H 3L2",53.499828,-113.524359,Alberta School For the Deaf,AB,https://fastly.4sqi.net/img/general/original/9811632_U2ZTbaSAVWXzriRxKiPXURGP1On7L7lWdeoCmq3-HtY.jpg,4.7,491,Primary and Secondary School,Alberta,290
OPERATIONAL,"5034 50 Ave, Vegreville AB T9C 1M1",53.495495,-112.052332,New Alberta Pub,AB,https://fastly.4sqi.net/img/general/original/D04AJVCBOFFN25HTJUD4GALCYSSC13GA3KBBFES2A0IG0CIT.jpg,3.6,96,Pub,Alberta,1780
OPERATIONAL,"11220 109 St NW (by Kingsway Garden Mall), Edmonton AB T5G 2T6",53.562228,-113.509431,Alberta Motor Association,AB,https://fastly.4sqi.net/img/general/original/kazCe73vKAhFiMrtHfPDY1Fqud0TuvuvcVDVJPkSsYg.jpg,3.1,281,Travel Agency,Alberta,1870
OPERATIONAL,"6426 40th Ave, Wetaskiwin AB T9A 2G1",52.963133,-113.419932,Reynolds-Alberta Museum,AB,https://fastly.4sqi.net/img/general/original/211037563_bOrna3LXfK-xrCiEmzYXDqnetU2if3PpCSjQoTqTrXI.jpg,1.1,71,Museum,Alberta,1370
OPERATIONAL,"4929 50 St, Red Deer AB T4N 1X9",52.268883,-113.813103,Alberta Barbers,AB,https://fastly.4sqi.net/img/general/original/87388367_w6naZg7Sqn8XQNkNMWQ6O8i23QbWHZHpVsADEpkuKGQ.jpg,2.5,173,Health and Beauty Service,Alberta,2000
OPERATIONAL,"4101 54 Ave, Red Deer AB T4N 7G3",52.267354,-113.816329,Central Alberta Women's Outreach Society,AB,https://fastly.4sqi.net/img/general/original/uzkT3i-j_zMjEu-kMfvrj9FwrA80YWlZcxVLgranxOI.jpg,3.9,128,Public and Social Service,Alberta,520
OPERATIONAL,"Hwy 16 (Highway 16), Mount Robson BC V0E 2Z0",53.035488,-119.22906,Mount Robson British Columbia Visitor Centre,BC,https://fastly.4sqi.net/img/general/original/76485407__rkEZKp7i5VS6IR8qT8PLKTNv-XbWzT18tuxutHhyDc.jpg,4.4,160,Tourist Information and Service,British Columia,840
OPERATIONAL,"111 Golden Donald Upper Rd, Golden BC V0A 1H1",51.301817,-116.955393,Golden British Columbia Visitor Centre,BC,https://fastly.4sqi.net/img/general/original/1231643__7DtjI3asfMHpuBqREfN9jAAMqrFdRpMRDqtIA9jqC8.jpg,3.3,221,Tourist Information and Service,British Columia,860
OPERATIONAL,"805 Gordon St (at Humboldt St.), Victoria BC V8W 1Z6",48.422781,-123.367162,The Inn at the Union Club of British Columbia,BC,https://fastly.4sqi.net/img/general/original/72469901_uP3gF3hST8vPE67j9fmk3WNodin_DNzTCN3Wdxg7lso.jpg,3.4,352,Event Space,British Columia,1380
OPERATIONAL,"222 Main St (E Cordova St), Vancouver BC V6A 2S8",49.282759,-123.099207,Provincial Court of British Columbia - Vancouver Criminal Court,BC,https://fastly.4sqi.net/img/general/original/PDxLB1gD_3DO4pZ9OkLGCYOKLb_phj7bsm_qffvOP0I.jpg,2.7,420,Courthouse,British Columia,1140
OPERATIONAL,"1111 Melville St, Vancouver BC V6E 3V6",49.286866,-123.122193,British Consulate General,BC,https://fastly.4sqi.net/img/general/original/24688507_2Xh6q_0nr-gYNBzvHE6xVdatGWSlWj6yIGy5Ef1KWf4.jpg,1.6,94,Embassy / Consulate,British Columia,860
OPERATIONAL,"845 Cambie St (btwn Smithe St. & Robson St.), Vancouver BC V6B 4Z9",49.277728,-123.115978,"Law Society of British Columbia the, Main Reception",BC,https://fastly.4sqi.net/img/general/original/39243_z76WEZIzaa0D6BjyvfKkMx63lzq3QG-nR2Krx9WTwWk.jpg,2.8,66,Attorney / Law Office,British Columia,1810
OPERATIONAL,"1765 8th Ave W, Vancouver BC V6J 5C6",49.264773,-123.144799,British Columbia Dental Assn,BC,https://fastly.4sqi.net/img/general/original/87388367_mP0Hpfe4Ah4Nw0C5OmLFkeZZeSO2mtTD5A6Q7p0BzaY.png,4.1,311,Dentist,British Columia,1400
OPERATIONAL,"2102 River Dr, New Westminster BC V3M 6S3",49.19812,-122.946967,Southern Railway of British Columbia Ltd,BC,https://fastly.4sqi.net/img/general/original/6430224_mIPQi5ZGdY3GUJ3fdzbHo5RD7Z-5Kt9zTujDYOSs6Zs.jpg,2.8,273,Rail Station,British Columia,860
OPERATIONAL,"2770 Wesbrook Mall, Vancouver BC V6T 2B7",49.26016,-123.239661,Panhellenic House - University of British Columbia Housing,BC,https://fastly.4sqi.net/img/general/original/54107971_kkpJcN6j7-RGQivjOZtDK2oVQ2iCWPyWSL0hrtdS5qU.jpg,4.5,175,Sorority House,British Columia,1960
OPERATIONAL,"1910 Norseman Rd, North Saanich BC V8L 5V5",48.640442,-123.421056,British Columbia Aviation Museum,BC,https://fastly.4sqi.net/img/general/original/5012405_cYLKglrGadYeFVlRVVGC2mzIJ0Cm1d6X3UGXRMDF2DA.jpg,1.4,453,History Museum,British Columia,1050
OPERATIONAL,"YVR Airport, Richmond BC",49.198487,-123.180372,British Airways First Class Lounge Vancouver Airport,BC,https://fastly.4sqi.net/img/general/original/226092781_AfwfiqyeiXlggx-_5xIdvmHqUeicH0nYK4_J-z2X0DY.jpg,3.3,332,Airport Lounge,British Columia,780
OPERATIONAL,"Terminal 3 (Toronto Pearson International Airport (YYZ)), Mississauga ON L5P 1B2",43.682213,-79.620612,British Airways Lounge,ON,https://fastly.4sqi.net/img/general/original/11439723_Yz8l7-8hc-c_0n8vl0_XIoCoUUWd-rwPbAgKtwdBxYY.jpg,4.3,302,Airport Lounge,British Columia,790
OPERATIONAL,"185 Lyon St N, Ottawa ON K1R 7Y4",45.417256,-75.703384,British Swim School of One80Five,ON,https://fastly.4sqi.net/img/general/original/87388367_zpoGgGYBRwuOV7DNok3Mf-h2mUGHzkzI0MezCmPT1vs.png,3.9,59,Swimming,British Columia,1470
OPERATIONAL,"80 Elgin St (btwn Queen & Albert), Ottawa ON K1P 5K7",45.422651,-75.694852,British High Commission,ON,https://fastly.4sqi.net/img/general/original/149907311_S12I8ZSTEBeh273NuCi46rweNlFDoOxhiJgnNBr3Acg.jpg,2.4,404,Embassy / Consulate,British Columia,1040
OPERATIONAL,"1700 Sainte Catherine Rue E (en face de la Place d'Armes), Montréal QC H2L 2J4",45.522335,-73.552343,BMO Bank of Montreal,QC,https://fastly.4sqi.net/img/general/original/nT8jJaMHll-Fyn3nAivyW2gQCb9ELQxvEczXDodzDJU.jpg,1.4,118,Bank,Montreal,1780
OPERATIONAL,"901 Sq Victoria (coin St-Antoine), Montréal QC H2Z 1R1",45.502085,-73.562019,W Montreal,QC,https://fastly.4sqi.net/img/general/original/2EyfEw6Q2UVUgYi6FTcX-HQ3ydRxlSzX5uvOemstmWw.jpg,4.3,174,Lodging,Montreal,1570
OPERATIONAL,"1030 MacKay Rue (au niveau de la rue René-Lévesque O), Montréal QC H3G 2H1",45.493967,-73.572945,Auberge de Jeunesse HI Montréal,QC,https://fastly.4sqi.net/img/general/original/33346532_csb8aSK1T4CcYVYQpZgKPRV9WrUbIT586t_tebkKuuA.jpg,3.5,418,Hostel,Montreal,720
OPERATIONAL,"2 Rue de la Commune Ouest (at boul. Saint-Laurent), Montréal QC H2Y 4B2",45.504833,-73.549708,Cinéma IMAX TELUS,QC,https://fastly.4sqi.net/img/general/original/DQHYIMOTJ2G3QZ4QMTLF255CJRMVML234OUXW2VDRDCTU2HA.jpg,2.9,247,Movie Theater,Montreal,1650
OPERATIONAL,"664 Erb St W (Ira Needles), Waterloo ON N2T 2Z7",43.445688,-80.574248,BMO Bank of Montreal,ON,https://fastly.4sqi.net/img/general/original/11315394_YD6BCI6HmODPcqds_SUVzb0ZNdtqJqfOOZecATuoDIM.jpg,4.4,290,Bank,Montreal,1640
OPERATIONAL,"455 Vanier Ch (Des Allumetieres), Gatineau QC J9J 1Z4",45.41629,-75.808526,BMO Bank of Montreal,QC,https://fastly.4sqi.net/img/general/original/106212762_2Pj2TP0Bt5Qq-Je4YLaOx_-5JD_4goYYsl8jtvsHrKA.jpg,1.3,112,Bank,Montreal,470
OPERATIONAL,"320 Saint Joseph Blvd (Galeries De Hull), Gatineau QC J8Y 3Y8",45.441433,-75.732408,BMO Bank of Montreal,QC,https://fastly.4sqi.net/img/general/original/5106810_k38ymSOXpjKfk6VtKfaDQtIMWsIadhbi6MMd-8eNlYY.jpg,3.5,95,Bank,Montreal,630
OPERATIONAL,"141 Prom du Portage (Rue Laval), Gatineau QC J8X 2K2",45.425838,-75.716666,BMO Bank of Montreal,QC,https://fastly.4sqi.net/img/general/original/106212762_NjSB3v1A0tJ7V0D1Z6r99S3ON8O_v8FJTZzBREi6ecM.jpg,3.6,89,Bank,Montreal,1890
OPERATIONAL,"205 Labelle Blvd (Chemin De La Grande Cote), Rosemere QC J7A 2H3",45.624432,-73.804316,BMO Bank of Montreal,QC,https://fastly.4sqi.net/img/general/original/QLMPK1VWQRXTNJRUULXGMQ1N3AGMCGDKDKM4O4RAD2LJSA51.jpg,1.5,334,Bank,Montreal,1560
OPERATIONAL,"3225 Saint-Martin Blvd O, Laval QC H7T 1S2",45.55773,-73.747663,BMO Bank of Montreal,QC,https://fastly.4sqi.net/img/general/original/UE5ZS2TIB1UBUWKGCBUAR4OYUTSVSMJYC241YD5IC225XHDL.jpg,4.6,374,Bank,Montreal,1070
OPERATIONAL,"1600 le Corbusier Blvd, Laval QC H7S 1Y9",45.561299,-73.729944,BMO Bank of Montreal,QC,https://fastly.4sqi.net/img/general/original/31760952_9SU60_8-G3YaoFHxANIRjGFvmSdPu57Y2_bnpz9icxY.jpg,2.1,84,Bank,Montreal,1120
OPERATIONAL,"6702 Trans Canadienne Rte, Pointe-Claire QC H9R 1C4",45.462947,-73.832193,BMO Bank of Montreal,QC,https://fastly.4sqi.net/img/general/original/45002949_mGrZUblPdCHBmaBoMdrMeLb2o7x0WuFkRJhutRTeYZU.jpg,3.6,251,Bank,Montreal,760
OPERATIONAL,"2867 Saint-Charles Blvd, Kirkland QC H9H 3B5",45.446535,-73.852134,BMO Bank of Montreal,QC,https://fastly.4sqi.net/img/general/original/u_04zvUPRxY9-ZvxbuotsBvIUsqwnhNPtB2A6TFHfpw.jpg,3.3,319,Bank,Montreal,640
OPERATIONAL,"183K Hymus Blvd, Pointe-Claire QC H9R 1E9",45.46145,-73.818005,BMO Bank of Montreal,QC,https://fastly.4sqi.net/img/general/original/Ye5M0ebDnnx4qg-NK4JKe6fraRbI-7PO6I5b9iQUu-I.jpg,4.5,417,Bank,Montreal,720
OPERATIONAL,"2133 Marcel Laurin Blvd (coin Saint-Exupery), Saint-Laurent QC H4R 1K4",45.519455,-73.701663,BMO Bank of Montreal,QC,https://fastly.4sqi.net/img/general/original/qhvlH-4bm81n_E7KEoHB2Z__31OjplrTT5kxHZkOO7k.jpg,3.5,186,Bank,Montreal,1770
OPERATIONAL,"235 Langlois Rue, Varennes QC J3X 1R3",45.684677,-73.435394,BMO Bank of Montreal,QC,https://fastly.4sqi.net/img/general/original/28391728_-3VCJdfLOxPy6tCQwzmnmsGZ8jadafI4BL3JEEskHeM.jpg,4.8,325,Bank,Montreal,1110
OPERATIONAL,"637 Decarie Blvd (Plamondon), Montréal QC H4L 3L3",45.51001,-73.67566,BMO Bank of Montreal (BMO Banque de Montréal),QC,https://fastly.4sqi.net/img/general/original/1382013940_PIL-A949_1nam-rnVov87imNmSthPNpMyEs1kGltDb0.jpg,2.6,466,Bank,Montreal,230
OPERATIONAL,"1805 Jean-Talon Rue E (coin Papineau), Montréal QC H2E 1T4",45.548096,-73.60711,BMO Bank of Montreal,QC,https://fastly.4sqi.net/img/general/original/12447140_4t_fQRH4mcVx-0fmx58Yqi64Wr5RU6hjB3rZvgRVyuQ.jpg,1.7,184,Bank,Montreal,1170
OPERATIONAL,"190 Rupert Ave (at Main St.), Winnipeg MB R3B 0N2",49.900093,-97.136433,The Manitoba Museum,MB,https://fastly.4sqi.net/img/general/original/48329394_cG4d-oAVaTxcMyAAqShkkS4uOcJ7QdIfb-txvXajrac.jpg,1.6,429,Museum,Manitoba,1490
OPERATIONAL,Manitoba,49.687501,-95.325975,Falcon Lake Manitoba,Manitoba,https://fastly.4sqi.net/img/general/original/325107_9vziaKd6y35A1SUB9CvWANDQrfiiubvtLJpHKRlu2sU.jpg,1.9,206,Lake,Manitoba,1730
OPERATIONAL,"45 Forks Market Rd (at The Forks), Winnipeg MB R3C 4T6",49.887559,-97.128385,Manitoba Children's Museum,MB,https://fastly.4sqi.net/img/general/original/3227513_qhUTDpOYAzxCKqG1MuoMp3zzmg8kNQbwqt7VC3Nm3Q8.jpg,3.4,192,Museum,Manitoba,1380
OPERATIONAL,"180 McPhillips St (@ Elgin Ave.), Winnipeg MB R3E 2J9",49.910073,-97.171237,Manitoba Japanese Canadian Ctr,MB,https://fastly.4sqi.net/img/general/original/21765901_2_V1pqXroF1D_48GRMe1fXStFlobmWM0yxEfJhjbl0I.jpg,2.5,487,Museum,Manitoba,1640
OPERATIONAL,"842 Milt Stegall Dr, Winnipeg MB R3G 3L4",49.891582,-97.198875,Manitoba Liquor & Lotteries,MB,https://fastly.4sqi.net/img/general/original/13237217_g_gasGLJipTIxeNGrL3qLRD9zEsx52XEcbV7kKUQaGQ.jpg,1.7,394,Arts and Entertainment,Manitoba,1610
OPERATIONAL,"727 McDermot Ave, Winnipeg MB R3E 3P5",49.904041,-97.160268,University of Manitoba Bannatyne Campus,MB,https://fastly.4sqi.net/img/general/original/83542124_wvzEY2K0POpqUub8i2_UxYx-5zGXJmZNiTKHqk5CENg.jpg,4.2,307,College and University,Manitoba,1890
OPERATIONAL,"840 Sherbrook St (@ William Ave.), Winnipeg MB R3A 1S1",49.903792,-97.156311,Children's Hospital Foundation of Manitoba Inc,MB,https://fastly.4sqi.net/img/general/original/168254111_yq_SZuif0h2q3E3WyCiIfXPkPbsloN8MYJq4YADAlTo.jpg,4.1,164,Hospital,Manitoba,1270
OPERATIONAL,"675 McDermot Ave (at Olivia st), Winnipeg MB R3E 0V9",49.903146,-97.158279,CancerCare Manitoba,MB,https://fastly.4sqi.net/img/general/original/kPTihLaqQMWwfnx-6342PjR61CqRPxz__J0v4m5Ooko.jpg,3.2,122,Hospital,Manitoba,1960
OPERATIONAL,"727 McDermot Ave, Winnipeg MB R3E 3P5",49.903541,-97.160288,University of Manitoba - Brodie Centre,MB,https://fastly.4sqi.net/img/general/original/168254111_uvPCPqvjXD7BZdSh1CRfFqpqeKoUpbRihB80jv_CtL4.jpg,3.6,337,Medical School,Manitoba,810
OPERATIONAL,"654 Erin St (btwn Wolever & Portage Ave.), Winnipeg MB R3G 2V9",49.886119,-97.185231,Irish Association of Manitoba,MB,https://fastly.4sqi.net/img/general/original/7Sb5XeIzCTL0DIngRLrueq4v4dlr3s6bqYHm_t5ldmw.jpg,1.5,343,Non-Profit Organization,Manitoba,1600
OPERATIONAL,"150 Henry Ave, Winnipeg MB R3B 0J7",49.902773,-97.132915,Manitoba Metis Federation Inc,MB,https://fastly.4sqi.net/img/general/original/4NBFJZRI1YGJSCBPO1XMLZOC3II1AY0WFEKKXS2XAGX2VFEB.jpg,2.6,397,Organization,Manitoba,850
OPERATIONAL,"Annabella St (Btwn Sutherland and Rover), Winnipeg MB",49.907388,-97.121391,Manitoba Hydro,MB,https://fastly.4sqi.net/img/general/original/12299592_i9Z9AbonQys6-aFHWPZ7M4W4M-93O-IAunST5zrSNdc.jpg,4.8,323,Office Building,Manitoba,220
OPERATIONAL,"100 Arthur St, Winnipeg MB R3B 1H3",49.898014,-97.14082,On Screen Manitoba,MB,https://fastly.4sqi.net/img/general/original/47904869_w0GXZkwoBd9Hcd35DK9-QcypH7lQnIsPixksephtUJg.jpg,4.3,51,Business and Professional Services,Manitoba,1090
OPERATIONAL,"145 Pacific Ave, Winnipeg MB R3B 2Z6",49.900566,-97.134412,Sport Manitoba,MB,https://fastly.4sqi.net/img/general/original/12732595_xgLer3OAHu5G6I7D7kPrWWUkh5uua7r-9OAcafvrhJI.jpg,1.6,440,Medical Center,Manitoba,1100
OPERATIONAL,"541 Portage Ave (btwn Spence & Young), Winnipeg MB R3C 2H1",49.889858,-97.154769,Ici Manitoba,MB,https://fastly.4sqi.net/img/general/original/EGYLjij82GVMGW5cPhf-PfdVSXq07NFFNsiVcCsiU4s.jpg,4.4,405,Arts and Entertainment,Manitoba,1290
OPERATIONAL,"40 Lexington Pk (@ Gateway Rd.), Winnipeg MB R2G 4J1",49.93273,-97.061383,Manitoba Public Insurance,MB,https://fastly.4sqi.net/img/general/original/1771853_H2mG9B1wq41jYiBqQy7hmW4_rsLx6aWVaPt9MQEvKaI.jpg,1.7,313,Insurance Agency,Manitoba,360
OPERATIONAL,"155 Carlton Ave, Winnipeg MB",49.888888,-97.143589,Manitoba Justice Security Guard and PI licensing,MB,https://fastly.4sqi.net/img/general/original/1771853_fwNb3dASt_FNkHMiuK1DhYTmax2q0S72baF7JkDgnXk.jpg,3.4,206,Government Building,Manitoba,1460
OPERATIONAL,"333 Broadway (Hargrave), Winnipeg MB R3C 4W3",49.887598,-97.141962,Workers Compensation Board of Manitoba,MB,https://fastly.4sqi.net/img/general/original/A2NzN6Ryci5C7uy3SCCTloIubfocFYxz-qFKDYzib38.jpg,1.7,142,Legal Service,Manitoba,830
OPERATIONAL,"820 Taylor Ave, Winnipeg MB R3M 3T1",49.856591,-97.155993,Manitoba Hydro,MB,https://fastly.4sqi.net/img/general/original/175212853_v_rrKVQRLM3qv5q1OF5s-9eCVS6iayBeqNriVyRW8c0.jpg,2.7,396,Utility Company,Manitoba,1570
OPERATIONAL,"Dafoe Rd (in Fort Garry Campus), Winnipeg MB",49.80863,-97.136555,University of Manitoba - Education Building,MB,https://fastly.4sqi.net/img/general/original/_VTIzEroRMncA5j9lOX0kk8IJ0JzV-2SQL398LrMh7s.jpg,3.9,485,College Academic Building,Manitoba,1080
OPERATIONAL,"61 Gillson St (in the University Centre), Winnipeg MB",49.809103,-97.134538,University of Manitoba - Bookstore,MB,https://fastly.4sqi.net/img/general/original/90841188_pQpPQyQ7oSzV1MoSWB4TmT69alIGi2ytKzUwDF0_aE4.jpg,1.6,343,College Bookstore,Manitoba,1760
OPERATIONAL,"365 Murdock (Dougald ave), Winnipeg MB R2V 1C1",49.872908,-96.980922,Water Ski Manitoba,MB,https://fastly.4sqi.net/img/general/original/415411_U3Ba2idpbhWsDyj9uahMJlDVs_5iUyaVE-zN3RfdkeI.jpg,2.1,343,Snow Sports,Manitoba,2000
OPERATIONAL,Lac du Bonnet MB,50.274692,-96.034995,Lac du Bonnet Manitoba,MB,https://fastly.4sqi.net/img/general/original/12299592_yLeKDMIlUTzczI-iAHnyE7FHQPSppRs8Nl5_av5OYqk.jpg,2.6,269,Other Great Outdoors,Manitoba,980
OPERATIONAL,"790 Sherbrook St, Winnipeg MB R3A 1M3",49.902279,-97.158016,Manitoba Clinic,MB,https://fastly.4sqi.net/img/general/original/58376623_F4ipeo0yl3ilD0fzB7qMz9PwzrX0YKlZ2N8HjGpVunI.jpg,2.2,163,Physician,Manitoba,550
OPERATIONAL,"309 Duckworth St, St. John's NL A1C 5M3",47.564474,-52.7075,"Supreme Court of Newfoundland and Labrador, Trial Division",NL,https://fastly.4sqi.net/img/general/original/32953585_Foz7Hneovdrtm30EHAYnE8US8Rjb6N7frM1uzXTF6Cc.jpg,2.1,135,Courthouse,Newfoundland and labrador,560
OPERATIONAL,"240 Water St, St. John's NL A1C 1B7",47.560818,-52.746023,Newfoundland and Labrador Credit Union,NL,https://fastly.4sqi.net/img/general/original/87388367_dNCblJd9H0FRUc6AZIi0IgkNtbazKyFo2tOnyxzH4eY.png,1.5,168,Banking and Finance,Newfoundland and labrador,310
OPERATIONAL,"15 King Sq N, Saint John NB E2L 1E6",45.274172,-66.058914,New Brunswick Svc,NB,https://fastly.4sqi.net/img/general/original/59916463_HiqHOTCIIy1gR60tKGWUjDlkzSynTeOIyDgKigyd7aw.jpg,4.8,146,Government Department / Agency,New Brunswick,1240
OPERATIONAL,"Albany St (Easton Ave.), New Brunswick, NJ 08901",40.496807,-74.446067,New Brunswick Train Station,NJ,https://fastly.4sqi.net/img/general/original/151886_gKZ_ebRHOxWGSYLHIDH12abHvbtHlU9D-b04obOD3BU.jpg,4.3,267,Rail Station,New Brunswick,1140
OPERATIONAL,"Mercantile Ctr, Saint John NB",45.273057,-66.064224,New Brunswick Museum at Market Square,NB,https://fastly.4sqi.net/img/general/original/131298255_AB4boWyA3wRm3op-1rfQplro1C5GF-_PDFTKNWtfVHw.jpg,4.2,108,Museum,New Brunswick,1760
OPERATIONAL,"21 Casino Dr (at Mountain Rd), Moncton NB E1G 0R7",46.128474,-64.879168,Casino New Brunswick,NB,https://fastly.4sqi.net/img/general/original/23840688_SIxPBCo005AyUuGEuehZchEGL6S5E8Xbp9OkSX0-4CQ.jpg,2.3,299,Casino,New Brunswick,1890
OPERATIONAL,"Aut 85 (Highway 2), Degelis QC G5T 1S9",47.484605,-68.484905,Frontière entre Québec - New Brunswick Border,QC,https://fastly.4sqi.net/img/general/original/16542__lhhfuI-L-9GfmnWhIG5ygoLeJGq-OYAu5tpSSCBBcg.jpg,4.9,386,Border Crossing,New Brunswick,150
OPERATIONAL,"100 de l'Aquarium St, Shippagan NB E8S 1H9",47.747558,-64.709461,New Brunswick Aquarium and Marine Centre,NB,https://fastly.4sqi.net/img/general/original/45702629_nB7LjElqrExLm-Otyz5oPXuLxNaz2zzIDyfYUn-ugXI.jpg,2.2,409,Arts and Entertainment,New Brunswick,1040
OPERATIONAL,"432 Queen St, Fredericton NB E3B 1B6",45.962504,-66.642455,Service New Brunswick,NB,https://fastly.4sqi.net/img/general/original/11676590_2P5mGBwk64yKamgVKERfPFwSiWGurLUxe2W1yhAln5E.jpg,2.5,138,Government Building,New Brunswick,810
OPERATIONAL,"457 Queen St, Fredericton NB E3B 1B7",45.9628,-66.64135,New Brunswick College of Craft and Design,NB,https://fastly.4sqi.net/img/general/original/31368725_Ymy0-b5yggXxxLmh-ba9NxTjvYwRMgyygJqLhKqUHzc.jpg,1.8,124,College and University,New Brunswick,750
OPERATIONAL,"34 MacKay Dr, Fredericton NB E3B 6H5",45.946519,-66.642067,University of New Brunswick,NB,https://fastly.4sqi.net/img/general/original/72844273_HGObAUXxk0ZkoRFRjSxyxqtyfoou4ysk5JzGDOmcAiU.jpg,2.2,439,College and University,New Brunswick,340
OPERATIONAL,"20 Bailey Dr, Fredericton NB E3B 5A3",45.943933,-66.639962,University of New Brunswick Accommodations,NB,https://fastly.4sqi.net/img/general/original/5KWwbJWPyuVxHF0I--BGzftZvwwc6FsfaU3MRyZbHRE.jpg,3.1,235,College Residence Hall,New Brunswick,1490
OPERATIONAL,"3 Bailey Dr, Fredericton NB E3B 5A3",45.948246,-66.641221,University of New Brunswick Fredericton,NB,https://fastly.4sqi.net/img/general/original/18714714_nsBHVV6UD8x4t8iMfG9WMmeGnAK2FAhYRgS10sMxjng.jpg,4.9,398,Education,New Brunswick,1510
OPERATIONAL,"100 Tucker Park Rd (at Sandy Point Rd), Saint John NB E2L 4L5",45.306324,-66.085684,University of New Brunswick,NB,https://fastly.4sqi.net/img/general/original/32936995_ADNjzFOIAtmxq5cBaOfsy6lC3n7763V6dhr2smHj-jo.jpg,4.4,300,College and University,New Brunswick,740
OPERATIONAL,"1 Market Sq, Saint John NB E2L 4Z6",45.273115,-66.064263,New Brunswick Museum,NB,https://fastly.4sqi.net/img/general/original/31856304_C4NbRZhTovexiTRitgWsyq-89m5DQSKdz2UmFv-J60E.jpg,2.9,444,Museum,New Brunswick,430
OPERATIONAL,"1234 Mtn Erd, Moncton NB E1C 8H9",46.108162,-64.828808,New Brunswick Community College - Moncton,NB,https://fastly.4sqi.net/img/general/original/IBrgTCIJARhjVObQ-hPcRG-lqKbyjAcSjPRCK_QqS0w.jpg,4.5,446,College and University,New Brunswick,910
OPERATIONAL,"950 Grandview Ave, Saint John NB E2J 4C5",45.285459,-65.993123,New Brunswick Community College,NB,https://fastly.4sqi.net/img/general/original/11676590_wMLmNcQaD151qkag77MZXoYkUhhLt5QCi69-qsSklAI.jpg,1.1,187,Community College,New Brunswick,1750
