,id,NAME,neighbourhood group,neighbourhood,lat,long,country,country code,room type,price,minimum nights,review rate number
0,1001254,Clean & quiet apt home by the park,Brooklyn,Kensington,40.64749,-73.97237,United States,US,Private room,966,10.0,4.0
1,1002102,Skylit Midtown Castle,Manhattan,Midtown,40.75362,-73.98377,United States,US,Entire home/apt,142,30.0,4.0
2,1002403,THE VILLAGE OF HARLEM....NEW YORK !,Manhattan,Harlem,40.80902,-73.9419,United States,US,Private room,620,3.0,5.0
4,1003689,Entire Apt: Spacious Studio/Loft by central park,Manhattan,East Harlem,40.79851,-73.94399,United States,US,Entire home/apt,204,10.0,3.0
5,1004098,Large Cozy 1 BR Apartment In Midtown East,Manhattan,Murray Hill,40.74767,-73.975,United States,US,Entire home/apt,577,3.0,3.0
6,1004650,BlissArtsSpace!,Brooklyn,Bedford-Stuyvesant,40.68688,-73.95596,United States,US,Private room,71,45.0,5.0
7,1005202,BlissArtsSpace!,Brooklyn,Bedford-Stuyvesant,40.68688,-73.95596,United States,US,Private room,1060,45.0,5.0
8,1005754,Large Furnished Room Near B'way,Manhattan,Hell's Kitchen,40.76489,-73.98493,United States,US,Private room,1018,2.0,3.0
9,1006307,Cozy Clean Guest Room - Family Apt,Manhattan,Upper West Side,40.80178,-73.96723,United States,US,Private room,291,2.0,5.0
10,1006859,Cute & Cozy Lower East Side 1 bdrm,Manhattan,Chinatown,40.71344,-73.99037,United States,US,Entire home/apt,319,1.0,3.0
11,1007411,Beautiful 1br on Upper West Side,Manhattan,Upper West Side,40.80316,-73.96545,United States,US,Entire home/apt,606,5.0,4.0
12,1007964,Central Manhattan/near Broadway,Manhattan,Hell's Kitchen,40.76076,-73.98867,United States,US,Private room,714,2.0,4.0
13,1008516,"Lovely Room 1, Garden, Best Area, Legal rental",brookln,South Slope,40.66829,-73.98779,United States,US,Private room,580,4.0,4.0
14,1009068,Wonderful Guest Bedroom in Manhattan for SINGLES,Manhattan,Upper West Side,40.79826,-73.96113,United States,US,Private room,149,2.0,3.0
15,1009621,West Village Nest - Superhost,Manhattan,West Village,40.7353,-74.00525,United States,US,Entire home/apt,578,90.0,3.0
38,1022323,Cute apt in artist's home,Brooklyn,Bushwick,40.70186,-73.92745,United States,US,Entire home/apt,1097,2.0,3.0
39,1022876,Country space in the city,Brooklyn,Flatbush,40.63702,-73.96327,United States,US,Private room,1020,1.0,3.0
40,1023428,LowerEastSide apt share shortterm 1,Manhattan,Lower East Side,40.71401,-73.98917,United States,US,Shared room,1010,1.0,5.0
41,1023980,ENJOY Downtown NYC!,Manhattan,East Village,40.7229,-73.98199,United States,US,Private room,563,2.0,3.0
42,1024533,Beautiful Sunny Park Slope Brooklyn,Brooklyn,South Slope,40.66278,-73.97966,United States,US,Entire home/apt,370,3.0,2.0
43,1025085,1bdr w private bath. in lofty apt,Brooklyn,Fort Greene,40.69673,-73.97584,United States,US,Private room,687,7.0,1.0
44,1025637,West Side Retreat,Manhattan,Upper West Side,40.79009,-73.97927,United States,US,Private room,856,4.0,3.0
56,1032265,Williamsburg 1 bedroom Apartment,Brooklyn,Williamsburg,40.70881,-73.9593,United States,US,Entire home/apt,439,30.0,5.0
65,1037236,Double Room w Private Deck Clinton Hill Best Area,Brooklyn,Clinton Hill,40.69,-73.96788,United States,US,Private room,825,7.0,2.0
66,1037788,Your Heaven in Hells Kitchen,Manhattan,Hell's Kitchen,40.75979,-73.99119,United States,US,Private room,646,30.0,1.0
67,1038340,Light-filled 2B duplex in the heart of Park Slope!,Brooklyn,Park Slope,40.67343,-73.98338,United States,US,Entire home/apt,1037,3.0,3.0
68,1038892,"Sunny, Modern room in East Village!",Manhattan,East Village,40.72649,-73.97904,United States,US,Private room,87,1.0,3.0
69,1039445,*HAVEN LOFT - Entire Floor - Six Windows - Bricks*,Brooklyn,Williamsburg,40.70933,-73.96792,United States,US,Entire home/apt,316,1.0,1.0
70,1039997,Large Room in Amazing East Village Apt,Manhattan,East Village,40.72298,-73.98474,United States,US,Private room,735,1.0,3.0
71,1040549,SpaHa Loft: Enormous and Bright,Manhattan,East Harlem,40.80164,-73.93922,United States,US,Entire home/apt,524,4.0,4.0
72,1041102,Lovely EV Artist's Home,Manhattan,East Village,40.72162,-73.98008,United States,US,Entire home/apt,238,9.0,3.0
73,1041654,Cool Room in Hell's Kitchen,Manhattan,Hell's Kitchen,40.76342,-73.98865,United States,US,Private room,603,7.0,3.0
79,1044968,Fort Greene Retreat on the Park,Brooklyn,Fort Greene,40.6932,-73.97267,United States,US,Private room,744,3.0,2.0
80,1045520,Beautiful Meatpacking District Loft,Manhattan,Chelsea,40.74138,-74.00197,United States,US,Private room,1065,3.0,4.0
82,1046625,Spacious luminous apt Upper West NYC,Manhattan,Harlem,40.82915,-73.95136,United States,US,Entire home/apt,1056,31.0,3.0
83,1047177,Entire 2 Bedroom - Large & Sunny,Manhattan,Lower East Side,40.71851,-73.98892,United States,US,Entire home/apt,909,5.0,4.0
84,1047729,"Sunny, Spacious Top Floor Haven",Brooklyn,Flatbush,40.65401,-73.96323,United States,US,Entire home/apt,586,6.0,4.0
85,1048282,Private room Great Deal at Lower East Side,Manhattan,Lower East Side,40.7114,-73.98794,United States,US,Private room,575,30.0,3.0
86,1048834,perfect for a family or small group,Brooklyn,Brooklyn Heights,40.69723,-73.99268,United States,US,Entire home/apt,292,1.0,3.0
87,1049386,2 bedroom Williamsburg Apt - Bedford L stop,Brooklyn,Williamsburg,40.71833,-73.95748,United States,US,Entire home/apt,194,3.0,4.0
88,1049938,Oh glorious spring!,Manhattan,East Village,40.72334,-73.9844,United States,US,Private room,123,3.0,2.0
89,1050491,Great Location for NYC,Manhattan,East Village,40.72912,-73.98057,United States,US,Private room,1079,1.0,5.0
108,1060984,"Modern Brooklyn Apt., August sublet",Brooklyn,Williamsburg,40.71459,-73.94844,United States,US,Entire home/apt,589,30.0,1.0
109,1061537,"1,800 sq foot in luxury building",Manhattan,Harlem,40.8092,-73.94421,United States,US,Private room,839,2.0,1.0
110,1062089,Sunny 2-story Brooklyn townhouse w deck and garden,Brooklyn,Gowanus,40.68157,-73.98989,United States,US,Entire home/apt,528,30.0,2.0
111,1062641,"Times Square, Safe, Clean and Cozy!",Manhattan,Hell's Kitchen,40.75527,-73.99291,United States,US,Private room,66,2.0,1.0
112,1063194,"Cozy Room #3, Landmark Home 1 Block to PRATT",Brooklyn,Clinton Hill,40.68698,-73.96572,United States,US,Private room,761,2.0,4.0
113,1063746,Beautiful Apartment East Village,Manhattan,East Village,40.7288,-73.98192,United States,US,Entire home/apt,523,7.0,5.0
114,1064298,Park Slope Green Guest House,Brooklyn,South Slope,40.66853,-73.98912,United States,US,Entire home/apt,631,30.0,3.0
115,1064851,2 BR / 2 Bath Duplex Apt with patio! East Village,Manhattan,East Village,40.7254,-73.98157,United States,US,Entire home/apt,677,2.0,5.0
116,1065403,NYC fabulous views Manhattan's eye,Manhattan,Kips Bay,40.74294,-73.98009,United States,US,Entire home/apt,574,5.0,3.0
124,1069821,East Village Sanctuary,Manhattan,East Village,40.72245,-73.98527,United States,US,Entire home/apt,1105,4.0,1.0
125,1070374,Large 1  BR in a 3 BR Brooklyn apt. next to Q Trn.,Brooklyn,Prospect-Lefferts Gardens,40.65593,-73.96053,United States,US,Private room,1109,2.0,4.0
126,1070926,Modern Apt with Spectacular Views,Brooklyn,Williamsburg,40.71923,-73.96468,United States,US,Private room,659,1.0,4.0
127,1071478,Garden studio in the Upper East Sid,Manhattan,Upper East Side,40.778,-73.94822,United States,US,Entire home/apt,571,5.0,4.0
128,1072030,Secluded Master Bedroom in Beautiful Huge Apt,Manhattan,Washington Heights,40.85879,-73.93128,United States,US,Private room,736,15.0,5.0
129,1072583,B & B Room 1,Brooklyn,Bedford-Stuyvesant,40.68332,-73.9547,United States,US,Private room,946,3.0,1.0
130,1073135,ACCOMMODATIONS GALORE #1,Manhattan,Harlem,40.81618,-73.94894,United States,US,Entire home/apt,449,3.0,3.0
131,1073687,Sunny Room in New Condo,Brooklyn,Clinton Hill,40.68414,-73.96351,United States,US,Private room,930,3.0,4.0
132,1074240,Stylish & Sleek Apartment Near SoHo!,Manhattan,East Village,40.72392,-73.99143,United States,US,Entire home/apt,329,5.0,4.0
133,1074792,NYC artists’ loft with roof deck,Brooklyn,Greenpoint,40.73494,-73.9503,United States,US,Private room,1125,3.0,2.0
134,1075344,Unique & Charming small 1br Apt. LES,Manhattan,Lower East Side,40.71341,-73.98856,United States,US,Entire home/apt,1099,3.0,5.0
135,1075897,Most Central Location!,Manhattan,Hell's Kitchen,40.76754,-73.98399,United States,US,Private room,256,2.0,2.0
137,1077001,Sanctuary in East Flatbush,Brooklyn,Flatlands,40.63188,-73.93248,United States,US,Private room,96,2.0,4.0
149,1083629,Cozy BR in Wiliamsburg 3 Bedroom,Brooklyn,Williamsburg,40.71165,-73.96087,United States,US,Private room,1133,3.0,5.0
150,1084181,Sunny Room in Old Historical Brooklyn Townhouse,Brooklyn,Fort Greene,40.69101,-73.97312,United States,US,Private room,162,8.0,4.0
151,1084733,Sun Filled Classic West Village Apt,Manhattan,West Village,40.73474,-74.00101,United States,US,Private room,944,4.0,3.0
152,1085286,Lg Rm in Historic Prospect Heights,Brooklyn,Prospect Heights,40.67386,-73.96641,United States,US,Private room,505,15.0,2.0
153,1085838,Classic Artist Loft Williamsburg,Brooklyn,Williamsburg,40.71536,-73.96057,United States,US,Private room,113,3.0,2.0
155,1086943,Private Bdrm/Bathrm. New! Elevator!,Manhattan,East Harlem,40.79295,-73.93997,United States,US,Private room,370,2.0,5.0
164,1091913,Luxurious Condo in DUBMO with View,Brooklyn,DUMBO,40.70207,-73.98571,United States,US,Private room,385,47.0,2.0
165,1092466,Charming & Cozy midtown loft any WEEK ENDS  !!!,Manhattan,Upper East Side,40.76123,-73.9642,United States,US,Entire home/apt,950,81.0,1.0
166,1093018,* Spacious GARDEN Park Slope Duplex* 6 people max,Brooklyn,Gowanus,40.66858,-73.99083,United States,US,Entire home/apt,374,144.0,2.0
167,1093570,Convenient cozy cheap apt Manhattan,Manhattan,Harlem,40.82704,-73.94907,United States,US,Entire home/apt,375,371.0,4.0
169,1094675,House On Henry (2nd FLR Suite),Brooklyn,Carroll Gardens,40.6783,-74.00135,United States,US,Entire home/apt,842,273.0,5.0
170,1095227,New York room with a view,Staten Island,St. George,40.64524,-74.08088,United States,US,Private room,1015,131.0,4.0
171,1095779,Sunny cozy room in Brklyn townhouse,Brooklyn,Bushwick,40.70641,-73.91765,United States,US,Private room,503,275.0,5.0
172,1096332,Room with a View,Bronx,Highbridge,40.83232,-73.93184,United States,US,Private room,483,323.0,1.0
173,1096884,Light+Open+Airy+Rustic+Modern Loft,Brooklyn,Williamsburg,40.71045,-73.9677,United States,US,Entire home/apt,176,59.0,4.0
174,1097436,West Inn 2 - East Village,Manhattan,East Village,40.72518,-73.98034,United States,US,Private room,185,99.0,4.0
175,1097989,Financial District Luxury Loft,Manhattan,Financial District,40.70666,-74.01374,United States,US,Entire home/apt,387,268.0,4.0
176,1098541,BROOKLYN VICTORIAN STYLE SUITE.....,Brooklyn,Fort Greene,40.69098,-73.97113,United States,US,Private room,1155,-10.0,5.0
177,1099093,Your own Lovely West Village Studio,Manhattan,West Village,40.73756,-74.00405,United States,US,Entire home/apt,665,189.0,1.0
178,1099645,ACCOMMODATIONS GALORE#3. 1-5 GUESTS,Manhattan,Harlem,40.81526,-73.94791,United States,US,Entire home/apt,175,30.0,2.0
179,1100198,Greenwich Village Stylish Apartment,Manhattan,West Village,40.73423,-74.0046,United States,US,Entire home/apt,408,340.0,1.0
180,1100750,Clean and Cozy Harlem Apartment,Manhattan,Harlem,40.82374,-73.9373,United States,US,Entire home/apt,601,128.0,3.0
181,1101302,"Fort Greene, Brooklyn: Center Bedroom",Brooklyn,Fort Greene,40.68863,-73.97691,United States,US,Private room,107,350.0,4.0
182,1101855,Beautiful Queens Brownstone! - 5BR,Queens,Ridgewood,40.70382,-73.89797,United States,US,Entire home/apt,724,166.0,4.0
183,1102407,Couldn't Be Closer To Columbia Uni,Manhattan,Morningside Heights,40.80549,-73.95924,United States,US,Private room,450,110.0,4.0
185,1103512,Park Slope haven 15 mins from Soho,Brooklyn,Park Slope,40.67994,-73.97863,United States,US,Entire home/apt,327,142.0,4.0
194,1108482,1 Bedroom in 2 Bdrm Apt- Upper East,Manhattan,Upper East Side,40.77333,-73.95199,United States,US,Private room,460,14.0,1.0
195,1109035,Lower East Side $57~/night,Manhattan,Lower East Side,40.72319,-73.99201,United States,US,Private room,81,1.0,1.0
197,1110139,( F) Excellent/Pvt Rm,Queens,Jamaica,40.67252,-73.76597,United States,US,Private room,1084,2.0,2.0
198,1110691,"Quiet, sunny Midtown Manhattan apt.",Manhattan,Hell's Kitchen,40.76244,-73.99271,United States,US,Entire home/apt,402,5.0,3.0
208,1116214,Cozy bedroom by Yankee Stadium,Bronx,Highbridge,40.83075,-73.93058,United States,US,Private room,538,1.0,1.0
209,1116767,Great apartment with private bathroom and entrance,Manhattan,East Harlem,40.79958,-73.94275,United States,US,Private room,252,5.0,1.0
214,1119528,Spacious Williamsburg Share w/ LOFT BED,Brooklyn,Williamsburg,40.70979,-73.95162,United States,US,Private room,131,4.0,4.0
215,1120081,Cozy 2 br in sunny Fort Greene apt,Brooklyn,Fort Greene,40.68656,-73.97525,United States,US,Private room,444,3.0,1.0
216,1120633,Cozy East Village Railroad 1 Bed!,Manhattan,East Village,40.72752,-73.98432,United States,US,Entire home/apt,1089,1.0,5.0
217,1121185,1 Bedroom Loft w/ Private Roof Deck,Brooklyn,Greenpoint,40.729,-73.95829,United States,US,Entire home/apt,518,2.0,2.0
218,1121737,City Room - Private & Comfy Bedroom,Manhattan,Harlem,40.81219,-73.94499,United States,US,Private room,220,1.0,5.0
219,1122290,Elegant NYC Pad,Queens,Ditmars Steinway,40.77185,-73.90502,United States,US,Entire home/apt,1133,2.0,3.0
220,1122842,"Clean & bright 1BR in Cobble Hill, GREAT location!",Brooklyn,Cobble Hill,40.68926,-73.99386,United States,US,Entire home/apt,316,2.0,2.0
221,1123394,"Modern, Large East Village Loft",Manhattan,East Village,40.72821,-73.98701,United States,US,Entire home/apt,396,3.0,4.0
222,1123947,"Great new apt, close to everything",Manhattan,Hell's Kitchen,40.7672,-73.98508,United States,US,Entire home/apt,813,3.0,5.0
223,1124499,Quiet & Clean Retreat in the City,Manhattan,East Village,40.73012,-73.99053,United States,US,Entire home/apt,111,3.0,3.0
224,1125051,Stylish Large Gramercy Loft!,Manhattan,Flatiron District,40.7403,-73.98498,United States,US,Entire home/apt,908,2.0,2.0
225,1125604,The Brownstone-Luxury 1 Bd Apt/NYC,Manhattan,Harlem,40.80931,-73.94343,United States,US,Entire home/apt,823,3.0,5.0
226,1126156,PRIVATE Room on Historic Sugar Hill,Manhattan,Harlem,40.8251,-73.94287,United States,US,Private room,186,1.0,4.0
227,1126708,South Slope Green,Brooklyn,Windsor Terrace,40.6585,-73.98397,United States,US,Private room,84,2.0,1.0
228,1127260,"17 Flr. Manhattan Views, Nr. Subway",Manhattan,Roosevelt Island,40.76193,-73.9501,United States,US,Private room,241,7.0,4.0
229,1127813,"Spacious 1BR, Adorable Clean Quiet",Manhattan,Lower East Side,40.72052,-73.98589,United States,US,Entire home/apt,54,3.0,3.0
230,1128365,"Nice, clean, safe, convenient 3BR",Queens,Ridgewood,40.70411,-73.89934,United States,US,Entire home/apt,656,14.0,5.0
231,1128917,Franklin St Flat in Trendy Greenpoint Brooklyn,Brooklyn,Greenpoint,40.73401,-73.95967,United States,US,Entire home/apt,509,2.0,5.0
232,1129470,"Artistic, Cozy, and Spacious w/ Patio! Sleeps 5",Manhattan,Chinatown,40.71756,-73.99503,United States,US,Entire home/apt,1198,4.0,5.0
237,1132231,City Room - Private Luxury Suite,Manhattan,Harlem,40.8118,-73.94434,United States,US,Private room,1127,1.0,3.0
238,1132783,Private Room/bath Luxurious Harlem,Manhattan,Harlem,40.81583,-73.94707,United States,US,Private room,137,2.0,4.0
239,1133336,The gem of the East Village,Manhattan,East Village,40.72654,-73.98049,United States,US,Entire home/apt,138,2.0,4.0
240,1133888,"Bright and spacious, garden below!",Manhattan,Upper West Side,40.80021,-73.96071,United States,US,Entire home/apt,597,4.0,3.0
242,1134993,Colorful Private One Bedroom Apt,Manhattan,Little Italy,40.71961,-73.9954,United States,US,Entire home/apt,959,2.0,5.0
243,1135545,Huge Chelsea Loft,Manhattan,Chelsea,40.74358,-74.00027,United States,US,Entire home/apt,595,2.0,1.0
244,1136097,Great room in great location,Manhattan,Harlem,40.80335,-73.9575,United States,US,Private room,1076,14.0,3.0
245,1136650,Exclusive Room with Private Bath in  LES,Manhattan,Chinatown,40.71445,-73.9908,United States,US,Private room,956,4.0,5.0
246,1137202,"Quiet, clean midtown apt w. elevato",Manhattan,Midtown,40.75749,-73.96897,United States,US,Entire home/apt,81,200.0,1.0
253,1141068,Smallest House In The Village,Manhattan,East Village,40.72477,-73.98161,United States,US,Entire home/apt,1067,3.0,4.0
254,1141620,Beautiful modern studio apartment in heart of NYC,Manhattan,Chelsea,40.74238,-73.99567,United States,US,Entire home/apt,794,9.0,2.0
255,1142173,Beautiful Landmarked Duplex,Brooklyn,Greenpoint,40.72945,-73.95511,United States,US,Entire home/apt,842,3.0,4.0
256,1142725,BROOKLYN > Guest Room w/ Queen Bed in Williamsburg,Brooklyn,Williamsburg,40.70763,-73.95177,United States,US,Private room,1164,2.0,1.0
257,1143277,D Private Che@p Room 2 Explore NYC,Staten Island,Tompkinsville,40.63481,-74.08519,United States,US,Private room,1032,2.0,5.0
258,1143829,Safe cute near subway& Manhattan NY NY retro style,Queens,Astoria,40.75384,-73.91433,United States,US,Entire home/apt,545,5.0,5.0
259,1144382,Large and Cozy Private Bedroom,Brooklyn,Kensington,40.64106,-73.97426,United States,US,Private room,786,1.0,4.0
260,1144934,Small tidy bedroom in duplex,Brooklyn,Park Slope,40.66793,-73.98327,United States,US,Private room,114,14.0,5.0
261,1145486,LL3,Bronx,Clason Point,40.81309,-73.85514,United States,US,Private room,643,2.0,1.0
263,1146591,"Private, Large & Sunny Top Floor Apt  w/W&D",Brooklyn,Bedford-Stuyvesant,40.68236,-73.94314,United States,US,Entire home/apt,841,399.0,4.0
264,1147143,Cottage in the Village,Manhattan,East Village,40.72185,-73.98246,United States,US,Entire home/apt,73,5.0,1.0
265,1147696,BEDROOM1 FOR RENT 10min from Manhan,Brooklyn,Bedford-Stuyvesant,40.68503,-73.95385,United States,US,Private room,1143,3.0,5.0
273,1152114,Amazing  Sunny & Breezy Home In the Heart of  NYC,Manhattan,Little Italy,40.71702,-73.99811,United States,US,Entire home/apt,895,14.0,2.0
274,1152666,ENJOY Downtown NYC!!,Manhattan,East Village,40.72321,-73.98157,United States,US,Private room,426,2.0,3.0
275,1153219,Charming UWS Treehouse Apt,Manhattan,Upper West Side,40.77956,-73.98098,United States,US,Entire home/apt,1127,2.0,2.0
276,1153771,Share a HOME - $75 for 1 bdrm/++ for 2 - Brooklyn,Brooklyn,Bedford-Stuyvesant,40.68276,-73.95264,United States,US,Private room,368,5.0,5.0
277,1154323,"Room in S3rd/Bedford, Williamsburg",Brooklyn,Williamsburg,40.71368,-73.9626,United States,US,Private room,679,3.0,2.0
278,1154875,CHARMING EAST VILLAGE 2 (or 1) BR,Manhattan,East Village,40.72956,-73.98158,United States,US,Entire home/apt,850,7.0,4.0
279,1155428,Farmhouse Apartment in Williamsburg,Brooklyn,Williamsburg,40.71069,-73.95175,United States,US,Entire home/apt,1003,10.0,1.0
293,1163160,SoHa comfort-by NW Central Park!,Manhattan,Morningside Heights,40.80393,-73.95838,United States,US,Private room,968,3.0,5.0
294,1163712,Cozy room in Upper West Side,Manhattan,Upper West Side,40.80082,-73.9652,United States,US,Private room,643,1.0,2.0
296,1164817,The Cozy Brownstone Inn (discount)!,Brooklyn,Bedford-Stuyvesant,40.683,-73.91981,United States,US,Entire home/apt,961,3.0,1.0
297,1165369,Prewar Penthouse w Private Terrace,Manhattan,Upper West Side,40.78971,-73.9729,United States,US,Entire home/apt,544,11.0,4.0
298,1165921,Designer 2.5 BR Loft in Carroll Gardens by Subway,Brooklyn,Carroll Gardens,40.67817,-73.99495,United States,US,Entire home/apt,523,2.0,5.0
299,1166474,Bright Beautiful Brooklyn,Brooklyn,Greenpoint,40.73119,-73.95578,United States,US,Private room,614,452.0,4.0
300,1167026,Unique spacious loft on the Bowery,Manhattan,Little Italy,40.71943,-73.99627,United States,US,Entire home/apt,178,2.0,2.0
301,1167578,"Nice renovated apt, prime location!",Manhattan,Upper West Side,40.78,-73.98249,United States,US,Entire home/apt,61,30.0,3.0
302,1168131,Brooklyn Writer's Nook,Brooklyn,Bushwick,40.70514,-73.91922,United States,US,Private room,901,5.0,3.0
303,1168683,Private Bedroom in Large NYC Apartment,Manhattan,Inwood,40.86713,-73.92811,United States,US,Private room,1189,2.0,4.0
304,1169235,"Large, Sunny Room East Village NYC",Manhattan,East Village,40.73198,-73.98881,United States,US,Private room,783,3.0,4.0
305,1169788,Great Large 3 BR/2 Bath Duplex with Private Patio!,Manhattan,East Village,40.72542,-73.97986,United States,US,Entire home/apt,69,2.0,4.0
309,1171997,Gigantic Private Brooklyn Loft!,Brooklyn,Greenpoint,40.72898,-73.95552,United States,US,Entire home/apt,784,1.0,4.0
310,1172549,Condo Apartment with laundry in unit,Bronx,Kingsbridge,40.87207,-73.90193,United States,US,Entire home/apt,55,30.0,5.0
311,1173101,1BR: See Central Park from Terrace!,Manhattan,Upper West Side,40.77728,-73.97818,United States,US,Entire home/apt,989,13.0,3.0
312,1173654,Private room in cozy Greenpoint,Brooklyn,Greenpoint,40.72646,-73.95341,United States,US,Private room,1029,3.0,1.0
313,1174206,Food & Music Dream Apartment in Williamsburg,Brooklyn,Williamsburg,40.71015,-73.96101,United States,US,Entire home/apt,291,4.0,3.0
314,1174758,French Garden cottage off Bedford,Brooklyn,Williamsburg,40.71903,-73.9597,United States,US,Entire home/apt,787,1.0,3.0
316,1175863,Luxury 3 bed/ 2 bath apt in Harlem w/ terrace,Manhattan,Harlem,40.80276,-73.9567,United States,US,Entire home/apt,725,14.0,5.0
317,1176415,One Bedroom Mini studio - Free WIFI,Queens,Astoria,40.77635,-73.93426,United States,US,Entire home/apt,612,2.0,1.0
320,1178072,Bright Cozy Chinatown Studio Apt.,Manhattan,Lower East Side,40.71876,-73.98394,United States,US,Entire home/apt,824,3.0,1.0
321,1178624,Eveland the Place to Stay & Enjoy a 5-⭐️ 2bdrm,Brooklyn,South Slope,40.66552,-73.99019,United States,US,Entire home/apt,1038,2.0,5.0
323,1179729,Hells Kitchen Garden of Eden,Manhattan,Hell's Kitchen,40.76248,-73.9913,United States,US,Private room,72,3.0,1.0
324,1180281,"Historic House Boerum Hill, BK, NYC",Brooklyn,Boerum Hill,40.68674,-73.98876,United States,US,Entire home/apt,162,4.0,5.0
325,1180834,Lovely 3 bedroom in Italianate Brownstone w/garden,Brooklyn,Clinton Hill,40.6848,-73.96219,United States,US,Entire home/apt,701,6.0,4.0
326,1181386,"Williamsburg HUGE, PRIVATE BATH - Next to Train!",Brooklyn,Williamsburg,40.70516,-73.95455,United States,US,Private room,566,14.0,5.0
338,1188013,Williamsburg penthouse with private roof cabana,Brooklyn,Williamsburg,40.7205,-73.96015,United States,US,Entire home/apt,933,30.0,5.0
339,1188566,East Village Designer's 1-BR APT,Manhattan,East Village,40.72451,-73.98094,United States,US,Entire home/apt,69,2.0,3.0
340,1189118,Superior @ Box House,Brooklyn,Greenpoint,40.73813,-73.95394,United States,US,Private room,1034,3.0,5.0
342,1190223,Large Studio--Heart of East Village,Manhattan,East Village,40.72843,-73.98895,United States,US,Entire home/apt,1019,1.0,3.0
343,1190775,Huge.Bright.Clean.Safe. Private Room,Manhattan,Two Bridges,40.71271,-73.99776,United States,US,Private room,588,3.0,1.0
344,1191327,Garden 1BR/1BA Brownstone Apt - 2 blocks to subway,Brooklyn,Crown Heights,40.66966,-73.94735,United States,US,Entire home/apt,206,15.0,2.0
345,1191880,MODERN SPACIOUS 2 BR APT DOWNTOWN MANHATTAN,Manhattan,Lower East Side,40.71965,-73.98766,United States,US,Entire home/apt,528,2.0,4.0
346,1192432,The Brooklyn Waverly,Brooklyn,Clinton Hill,40.68613,-73.96536,United States,US,Entire home/apt,332,5.0,3.0
347,1192984,"WONDERFUL, COMFORTABLE STUDIO",Brooklyn,Bedford-Stuyvesant,40.68048,-73.94911,United States,US,Entire home/apt,174,3.0,3.0
349,1194089,"Modern, Safe, Clean, Bright Room in Astoria for 2",Queens,Astoria,40.75961,-73.91117,United States,US,Private room,292,1.0,5.0
350,1194641,LARGE 1BR (CONV 2BR) CROWN HEIGHTS,Brooklyn,Crown Heights,40.67473,-73.94494,United States,US,Entire home/apt,1142,3455.0,1.0
360,1200164,"MANHATTAN Neat, Nice, Bright ROOM",Manhattan,Washington Heights,40.85295,-73.93361,United States,US,Private room,50,2.0,4.0
362,1201269,Large Brand New Park Slope 1BR,Brooklyn,Gowanus,40.66918,-73.99187,United States,US,Entire home/apt,575,7.0,3.0
363,1201821,Colorful Artistic Williamsburg Apt,Brooklyn,Williamsburg,40.71125,-73.95613,United States,US,Private room,99,3.0,2.0
364,1202373,UWS Brownstone Near Central Park,Manhattan,Upper West Side,40.78558,-73.9696,United States,US,Entire home/apt,52,21.0,5.0
365,1202926,Artsy TopFloor Apt in PRIME BEDFORD Williamsburg,Brooklyn,Williamsburg,40.71577,-73.96053,United States,US,Entire home/apt,964,3.0,5.0
366,1203478,2 BR w/ Terrace @ Box House Hotel,Brooklyn,Greenpoint,40.73861,-73.95485,United States,US,Private room,68,3.0,4.0
367,1204030,BOHEMIAN EAST VILLAGE 2 BED HAVEN,Manhattan,East Village,40.72577,-73.98745,United States,US,Entire home/apt,549,5.0,5.0
368,1204582,Oceanfront Apartment in Rockaway,Queens,Rockaway Beach,40.58615,-73.81245,United States,US,Private room,438,27.0,3.0
369,1205135,Private 1-Bedroom Apt in Townhouse,Brooklyn,Crown Heights,40.67086,-73.94872,United States,US,Entire home/apt,490,30.0,5.0
370,1205687,Bright Room With A Great River View,Manhattan,Harlem,40.82773,-73.95231,United States,US,Private room,1137,3.0,4.0
371,1206239,Tree lined block modern apartment,Brooklyn,Bedford-Stuyvesant,40.68505,-73.95684,United States,US,Entire home/apt,1170,2.0,2.0
372,1206792,Sweet Historic Greenpoint Duplex,Brooklyn,Greenpoint,40.72911,-73.95493,United States,US,Entire home/apt,753,3.0,2.0
373,1207344,Riverside Charm with Fire Place,Manhattan,Upper West Side,40.77944,-73.98567,United States,US,Entire home/apt,369,5.0,2.0
374,1207896,"Very Central, Nomad/Chelsea Loft Studio",Manhattan,Midtown,40.74503,-73.98876,United States,US,Entire home/apt,508,18.0,4.0
375,1208449,Sunny 3BR Apt Ideal for Family,Brooklyn,Crown Heights,40.67539,-73.96093,United States,US,Entire home/apt,443,7.0,4.0
376,1209001,Cozy Private Room in West Harlem!,Manhattan,Harlem,40.8054,-73.95189,United States,US,Private room,947,1.0,1.0
377,1209553,UES Quiet & Spacious 1 bdrm for 4,Manhattan,Upper East Side,40.78491,-73.9508,United States,US,Entire home/apt,857,2.0,3.0
378,1210105,ALL ABOUT A VERY COMFORTABLE ROOM..,Brooklyn,Fort Greene,40.69088,-73.97307,United States,US,Private room,861,2.0,3.0
379,1210658,Brooklyn- Crown Heights Garden Apt.,Brooklyn,Crown Heights,40.67555,-73.95057,United States,US,Private room,536,2.0,1.0
380,1211210,Cozy room in Time Square!,Manhattan,Hell's Kitchen,40.75835,-73.99193,United States,US,Private room,690,10.0,5.0
381,1211762,Large Park Slope Townhouse Duplex,Brooklyn,South Slope,40.66527,-73.9886,United States,US,Entire home/apt,971,14.0,2.0
382,1212315,Lower East Side 2 Bedroom Apt,Manhattan,Lower East Side,40.71895,-73.99434,United States,US,Entire home/apt,696,1.0,5.0
383,1212867,"Manhattan Studio, Perfect Location",Manhattan,Midtown,40.75579,-73.96699,United States,US,Entire home/apt,1188,6.0,4.0
393,1218390,Spacious Brooklyn Loft - 2 Bedroom,Brooklyn,Williamsburg,40.72063,-73.95952,United States,US,Entire home/apt,586,2.0,1.0
394,1218942,"Park Slope Apt:, Spacious 2 bedroom",Brooklyn,Park Slope,40.67644,-73.98082,United States,US,Entire home/apt,608,2.0,2.0
395,1219495,NYC Studio for Rent in Townhouse,Manhattan,Harlem,40.80481,-73.94794,United States,US,Entire home/apt,964,2.0,2.0
396,1220047,⚡Quiet Gem w/roof deck on NY's Hottest Street⚡,Manhattan,East Village,40.72533,-73.99143,United States,US,Entire home/apt,154,2.0,4.0
397,1220599,Authentic New York City Living,Brooklyn,Bedford-Stuyvesant,40.68569,-73.93038,United States,US,Private room,132,2.0,3.0
398,1221151,SUPER BIG AND COZY PRIVATE BEDROOM,Brooklyn,Kensington,40.64302,-73.97255,United States,US,Private room,779,-1.0,2.0
399,1221704,☆Massive DUPLEX☆ 2BR & 2BTH East Village 9+ Guests,Manhattan,East Village,40.72939,-73.98857,United States,US,Entire home/apt,619,2.0,1.0
400,1222256,Gorgeous Upper West Side Apartment,Manhattan,Upper West Side,40.79918,-73.96607,United States,US,Private room,1155,1.0,2.0
413,1229436,Sunny and Spacious Designer's Home,Brooklyn,Greenpoint,40.72212,-73.94254,United States,US,Entire home/apt,1015,5.0,2.0
414,1229988,"Spacious,Sunny, private one bedroom",Brooklyn,Crown Heights,40.67456,-73.95151,United States,US,Entire home/apt,507,20.0,4.0
421,1233854,Charming Nolita Apartment!!,Manhattan,Nolita,40.72094,-73.99706,United States,US,Entire home/apt,874,-10.0,5.0
422,1234407,"EAST VILLAGE STUDIO, sunny & quiet",Manhattan,East Village,40.72485,-73.97813,United States,US,Entire home/apt,589,4.0,5.0
423,1234959,LUXURY OF THE HORIZON,Manhattan,Harlem,40.80473,-73.9532,United States,US,Entire home/apt,725,8.0,3.0
430,1238825,NYC - Sunny Greenwich Village 1br,Manhattan,Greenwich Village,40.72831,-74.00177,United States,US,Entire home/apt,954,3.0,5.0
431,1239377,Garage Designer Loft,Brooklyn,Williamsburg,40.71541,-73.94144,United States,US,Entire home/apt,233,2.0,4.0
432,1239930,Best City Area Columbia U Upper West Side C Park,Manhattan,Upper West Side,40.79765,-73.96245,United States,US,Entire home/apt,1032,5.0,2.0
433,1240482,Your own apartment off Park Avenue,Manhattan,Upper East Side,40.78508,-73.95332,United States,US,Entire home/apt,1123,4.0,1.0
434,1241034,Artsy 1 bedroom Apt. 20 min to 42nd Grand Central!,Bronx,Woodlawn,40.89747,-73.8639,United States,US,Entire home/apt,811,1.0,5.0
435,1241587,Lower East Side 2 Bed Apt.,Manhattan,Lower East Side,40.72008,-73.98404,United States,US,Entire home/apt,935,4.0,5.0
436,1242139,Astoria-Private Home NYC-,Queens,Astoria,40.75725,-73.91098,United States,US,Entire home/apt,465,1.0,5.0
437,1242691,"BIG, COMFY , PRIV. ROOM, BIG APT, YARD, GREAT LOC.",Brooklyn,Williamsburg,40.7102,-73.94495,United States,US,Private room,256,2.0,3.0
438,1243243,Park Slope Apartment,Brooklyn,Park Slope,40.67359,-73.97904,United States,US,Entire home/apt,716,2.0,3.0
439,1243796,CHARMING PRIVATE BEDROOM EAST VILLAGE,Manhattan,East Village,40.72674,-73.9782,United States,US,Private room,1196,7.0,5.0
440,1244348,City Room - Semi Private Bedroom,Manhattan,Harlem,40.81156,-73.94571,United States,US,Private room,448,3.0,1.0
441,1244900,Cozy apartment in a brownstone,Manhattan,Harlem,40.80497,-73.95016,United States,US,Entire home/apt,920,-12.0,5.0
442,1245453,Female Only Clean15min to Manhattan,Queens,Sunnyside,40.7385,-73.91806,United States,US,Private room,805,40.0,1.0
443,1246005,Greenpoint Spacious Loft,Brooklyn,Greenpoint,40.72937,-73.95671,United States,US,Entire home/apt,859,2.0,2.0
444,1246557,Private E. Village Townhouse Stay,Manhattan,East Village,40.72587,-73.98438,United States,US,Private room,691,3.0,3.0
445,1247110,Harlem/Hamilton Heights Cozy Room,Manhattan,Harlem,40.82426,-73.9463,United States,US,Private room,693,3.0,4.0
446,1247662,Incredible Prime Williamsburg Loft!,Brooklyn,Williamsburg,40.71624,-73.96272,United States,US,Entire home/apt,747,45.0,5.0
447,1248214,Large  Loft Style  Studio  Space,Brooklyn,Bedford-Stuyvesant,40.68101,-73.94081,United States,US,Entire home/apt,906,31.0,3.0
449,1249319,Entire Apt in Heart of Williamsburg,Brooklyn,Williamsburg,40.71534,-73.95914,United States,US,Entire home/apt,252,5.0,5.0
450,1249871,Clinton Hill + Free Coffee = #smile,Brooklyn,Clinton Hill,40.68288,-73.96024,United States,US,Private room,718,3.0,2.0
454,1252080,Red Room for two in Brownstone for $1355/mo,Brooklyn,Bedford-Stuyvesant,40.6798,-73.93908,United States,US,Private room,857,1.0,5.0
455,1252633,"Chelsea living, 2BR best location",Manhattan,Chelsea,40.74346,-73.99882,United States,US,Private room,839,2.0,2.0
456,1253185,LOCATION LOCATION LOCATION UWS 60's,Manhattan,Upper West Side,40.77724,-73.98109,United States,US,Entire home/apt,1126,3.0,5.0
457,1253737,In the heart of East Village,Manhattan,East Village,40.72972,-73.97995,United States,US,Entire home/apt,166,2.0,2.0
458,1254289,Sunny 15min to Manhattan LADY only,Queens,Sunnyside,40.74102,-73.91681,United States,US,Private room,330,40.0,2.0
459,1254842,Surfer room 15mins to downtown NYC!,Brooklyn,Williamsburg,40.71309,-73.94128,United States,US,Private room,225,6.0,5.0
460,1255394,Manhattan Penthouse-Max.12 guests,Manhattan,Harlem,40.83096,-73.94633,United States,US,Entire home/apt,839,3.0,3.0
461,1255946,Prime Williamsburg 3 BR with Deck,Brooklyn,Williamsburg,40.71323,-73.95745,United States,US,Entire home/apt,687,5.0,5.0
462,1256499,Beautiful Brooklyn Oasis,Brooklyn,Crown Heights,40.67212,-73.9506,United States,US,Entire home/apt,293,2.0,2.0
463,1257051,Blue Room in Awesome Artist's Apartment!,Brooklyn,Williamsburg,40.71023,-73.96665,United States,US,Private room,814,3.0,5.0
464,1257603,Cool & Spacious Harlem Artist Flat,Manhattan,Harlem,40.80523,-73.95139,United States,US,Entire home/apt,698,5.0,5.0
466,1258708,Greenpoint Loft / Le Chez Andrea,Brooklyn,Greenpoint,40.72185,-73.93956,United States,US,Private room,1124,4.0,1.0
467,1259260,"*SoHo: Clean, Safe, Private, Peaceful Bedroom (A)*",Manhattan,SoHo,40.72351,-73.99683,United States,US,Private room,817,2.0,1.0
468,1259812,Amazing Brownstone in Best Brooklyn,Brooklyn,Carroll Gardens,40.6809,-73.99233,United States,US,Entire home/apt,52,7.0,5.0
469,1260365,Couldn't Be Closer To Columbia Uni2,Manhattan,Morningside Heights,40.80525,-73.95916,United States,US,Private room,1198,5.0,5.0
470,1260917,Lady only Curtain-divided room,Queens,Sunnyside,40.74,-73.91901,United States,US,Private room,613,44.0,5.0
473,1262574,Spacious Quiet rm - 20mins to Midtown,Manhattan,Washington Heights,40.84468,-73.94303,United States,US,Private room,409,398.0,1.0
478,1265335,Charming upper west side apartment,Manhattan,Upper West Side,40.77886,-73.98042,United States,US,Entire home/apt,410,-2.0,2.0
479,1265888,Light-filled East Village Delight,Manhattan,East Village,40.72578,-73.97879,United States,US,Entire home/apt,229,3.0,5.0
480,1266440,"Sunny, quiet, legal homelike suite-Pk Slope South",Brooklyn,South Slope,40.66085,-73.98537,United States,US,Entire home/apt,1060,28.0,4.0
481,1266992,Spacious Duplex in Brownstone!,Manhattan,East Harlem,40.80113,-73.94503,United States,US,Entire home/apt,1046,2.0,4.0
482,1267545,Lovely Vintage Haven—Heart of UWS,Manhattan,Upper West Side,40.78569,-73.97581,United States,US,Entire home/apt,114,65.0,4.0
483,1268097,Modern Space in Charming Pre-war,Manhattan,Harlem,40.82411,-73.94934,United States,US,Private room,721,2.0,3.0
484,1268649,Warehouse Loft with Garden view,Brooklyn,Bedford-Stuyvesant,40.68131,-73.95332,United States,US,Entire home/apt,146,2.0,2.0
490,1271963,Gorgeous 1 bdrm in huge duplex!,Manhattan,Harlem,40.80224,-73.94558,United States,US,Private room,424,2.0,3.0
491,1272515,"Sunny, cozy room in Lower East Side",Manhattan,Lower East Side,40.71473,-73.98842,United States,US,Private room,435,3.0,4.0
493,1273620,Cozy Pre-War Harlem Apartment,Manhattan,Harlem,40.80827,-73.95329,United States,US,Shared room,67,3.0,5.0
494,1274172,spacious studio,Brooklyn,Greenpoint,40.72901,-73.95812,United States,US,Private room,590,3.0,4.0
495,1274725,"Elegant 2-BR duplex, Union Square",Manhattan,Gramercy,40.73476,-73.98452,United States,US,Entire home/apt,365,2.0,3.0
496,1275277,Cozy private family home in Bushwick,Brooklyn,Bushwick,40.69055,-73.92357,United States,US,Entire home/apt,314,2.0,2.0
497,1275829,Luxury 2Bed/2.5Bath Central Park View,Manhattan,Upper West Side,40.7735,-73.98697,United States,US,Entire home/apt,1139,30.0,4.0
498,1276381,Cosy Sunny 1brm in Prospect Heights,Brooklyn,Crown Heights,40.67505,-73.95969,United States,US,Entire home/apt,638,3.0,1.0
499,1276934,East Village bedroom w rooftop,Manhattan,East Village,40.72974,-73.98201,United States,US,Private room,1051,4.0,1.0
500,1277486,Williamsburg Home Away From Home!,Brooklyn,Williamsburg,40.70925,-73.95425,United States,US,Entire home/apt,164,4.0,3.0
501,1278038,Brand New Beautiful Duplex Apartment with Garden,Brooklyn,Greenpoint,40.72315,-73.95226,United States,US,Entire home/apt,586,2.0,5.0
502,1278591,"PRIME, Luxury, Spacious 2 Bedroom Apt in Chelsea",Manhattan,Chelsea,40.73939,-73.99612,United States,US,Entire home/apt,828,10.0,5.0
503,1279143,SPACIOUS ALCOVE STUDIO/ JUNIOR ONE,Manhattan,Kips Bay,40.74112,-73.97686,United States,US,Entire home/apt,600,6.0,3.0
504,1279695,High-end doorman bldg in the LES,Manhattan,Lower East Side,40.72019,-73.98217,United States,US,Private room,700,2.0,5.0
505,1280248,Spring & Mulberry 2 Bedroom Apartment,Manhattan,Nolita,40.72133,-73.99666,United States,US,Entire home/apt,623,1.0,5.0
506,1280800,Ultra Modern NYC Garden Apartment,Queens,Astoria,40.75744,-73.92163,United States,US,Entire home/apt,1135,30.0,5.0
507,1281352,Modern Garden Apartment in NYC,Queens,Astoria,40.75695,-73.9202,United States,US,Entire home/apt,331,30.0,5.0
508,1281904,Gorgeous Entire Manhattan Townhouse,Manhattan,Harlem,40.8296,-73.94651,United States,US,Entire home/apt,271,2.0,3.0
509,1282457,Cozy studio Apartment in Upper East,Manhattan,East Harlem,40.79056,-73.9468,United States,US,Entire home/apt,217,2.0,1.0
510,1283009,Historic classic central cozy Village clean NYU,Manhattan,West Village,40.73631,-73.99977,United States,US,Entire home/apt,613,15.0,5.0
511,1283561,A PRIVATE FLAT / APARTMENT- $SPECIAL$,Bronx,Allerton,40.86466,-73.85709,United States,US,Entire home/apt,73,2.0,1.0
512,1284114,Williamsburg bedroom by Bedford Ave,Brooklyn,Williamsburg,40.71312,-73.96199,United States,US,Private room,1057,2.0,5.0
513,1284666,Clean and bright with a comfortable atmosphere,Brooklyn,Williamsburg,40.71297,-73.94336,United States,US,Private room,546,4.0,3.0
514,1285218,WEST VILLAGE LRG CLEAN SUNNY PRIVATE BDRM,Manhattan,West Village,40.73712,-74.00166,United States,US,Private room,88,30.0,5.0
515,1285771,Historic Brooklyn Studio Apartment,Brooklyn,Bedford-Stuyvesant,40.69242,-73.95097,United States,US,Entire home/apt,833,2.0,3.0
521,1289084,Room in Chic Modern High Line Luxury- New!,Manhattan,Chelsea,40.74695,-74.00454,United States,US,Private room,440,4.0,3.0
522,1289637,Family & Friends in New York City,Brooklyn,East New York,40.67497,-73.87305,United States,US,Entire home/apt,1181,3.0,2.0
523,1290189,Spacious & Comfy BK Brownstone,Brooklyn,Crown Heights,40.66788,-73.94813,United States,US,Entire home/apt,923,4.0,3.0
524,1290741,Large Luxury Upper East Side Studio,Manhattan,Upper East Side,40.76684,-73.95944,United States,US,Entire home/apt,858,7.0,2.0
525,1291294,Chateau Style Brooklyn Loft for Singles or Couples,Brooklyn,Bedford-Stuyvesant,40.68967,-73.95445,United States,US,Entire home/apt,413,-3.0,5.0
526,1291846,Lovely Brooklyn Brownstone 1BR!,Brooklyn,Prospect Heights,40.67946,-73.96501,United States,US,Entire home/apt,972,3.0,1.0
527,1292398,Beautiful Grdn. Apt. in Park Slope,Brooklyn,Park Slope,40.66944,-73.98083,United States,US,Entire home/apt,346,3.0,5.0
528,1292950,Sun-drenched East Village Penthouse,Manhattan,East Village,40.72566,-73.97748,United States,US,Private room,152,3.0,4.0
529,1293503,Columbus Circle Luxury Bldg - Private Room&Bath,Manhattan,Hell's Kitchen,40.7709,-73.99181,United States,US,Private room,619,28.0,5.0
530,1294055,Bright Private Bedroom in Williamsburg (Bedford L),Brooklyn,Williamsburg,40.71943,-73.95958,United States,US,Private room,557,30.0,4.0
531,1294607,"Spacious, Kid-Friendly, and 15-20 Mins. to Midtown",Queens,Sunnyside,40.74249,-73.92466,United States,US,Private room,177,2.0,2.0
532,1295160,Quiet Chelsea Studio w/Charm,Manhattan,Chelsea,40.74033,-74.00024,United States,US,Entire home/apt,836,6.0,1.0
533,1295712,Large Room Overlooking Central Park,Manhattan,Upper West Side,40.7969,-73.96128,United States,US,Private room,181,6.0,4.0
534,1296264,"Cheerful, comfortable room",Manhattan,Washington Heights,40.83403,-73.94553,United States,US,Private room,913,1.0,5.0
535,1296817,Hospitality on Propsect Pk-12 yrs Hosting Legally!,Brooklyn,Prospect-Lefferts Gardens,40.65513,-73.95641,United States,US,Private room,556,1.0,4.0
536,1297369,"Prospect Pk*NYC in 5 stops* Cozy,Clean & Legal!",Brooklyn,Prospect-Lefferts Gardens,40.65589,-73.95539,United States,US,Private room,67,1.0,2.0
537,1297921,Loft Style Apt in Williamsburg,Brooklyn,Williamsburg,40.70275,-73.94501,United States,US,Private room,253,1.0,5.0
538,1298473,2 Beds over Bed-Stuy,Brooklyn,Bedford-Stuyvesant,40.68897,-73.93569,United States,US,Entire home/apt,348,3.0,2.0
539,1299026,"Sunny, Large, Park Slope Bedroom",Brooklyn,Park Slope,40.67617,-73.98136,United States,US,Private room,951,1.0,2.0
540,1299578,Huge Bklyn Loft w Private Roofdeck,Brooklyn,Park Slope,40.67595,-73.98053,United States,US,Entire home/apt,832,5.0,4.0
541,1300130,Quiet Jr Alcove Near Times Square!,Manhattan,Hell's Kitchen,40.76415,-73.99067,United States,US,Entire home/apt,652,1.0,4.0
542,1300683,Large room in elevator drman bldg,Manhattan,Harlem,40.83127,-73.94718,United States,US,Private room,175,2.0,4.0
543,1301235,"Comfy, Cozy, Brooklyn close to Manhattan",Brooklyn,Bedford-Stuyvesant,40.68497,-73.95592,United States,US,Entire home/apt,710,3.0,4.0
544,1301787,Modern Bedroom in Hamilton Heights,Manhattan,Harlem,40.82922,-73.94174,United States,US,Private room,783,3.0,3.0
545,1302340,Sunny Space in Williamsburg,Brooklyn,Williamsburg,40.71137,-73.94362,United States,US,Private room,760,2.0,3.0
546,1302892,Best Manhattan Studio Deal!,Manhattan,Upper East Side,40.76739,-73.9557,United States,US,Shared room,910,1.0,1.0
548,1303996,Serene Park Slope Garden Apartment,Brooklyn,Park Slope,40.6755,-73.97859,United States,US,Entire home/apt,565,4.0,1.0
549,1304549,Cozy and spacious - rare for NYC!,Brooklyn,Bedford-Stuyvesant,40.68812,-73.94934,United States,US,Private room,567,4.0,5.0
555,1307863,Ideal Brooklyn Brownstone Apartment,Brooklyn,Bedford-Stuyvesant,40.68186,-73.94113,United States,US,Entire home/apt,644,3.0,2.0
556,1308415,"A Cozy Oasis in Bushwick, NY",Brooklyn,Bushwick,40.68364,-73.91076,United States,US,Private room,500,2.0,1.0
557,1308967,Private Entrance - Private Parking,Brooklyn,Williamsburg,40.71893,-73.9428,United States,US,Entire home/apt,1114,4.0,4.0
558,1309519,Yankee Stadium Oasis 2 stops to Manhattan!,Bronx,Concourse Village,40.82802,-73.92039,United States,US,Private room,581,3.0,1.0
559,1310072,"Sunny, Spacious Studio in Ft.Greene",Brooklyn,Fort Greene,40.68765,-73.97073,United States,US,Entire home/apt,353,2.0,4.0
560,1310624,Williamsburg Exposed Brick Loft,Brooklyn,Williamsburg,40.71413,-73.96596,United States,US,Entire home/apt,680,14.0,4.0
561,1311176,Bright Modern Charming Housebarge,Brooklyn,Sheepshead Bay,40.58422,-73.94079,United States,US,Entire home/apt,441,4.0,2.0
562,1311729,Central Bedford Avenue Apartment,Brooklyn,Williamsburg,40.71973,-73.95582,United States,US,Entire home/apt,357,3.0,5.0
563,1312281,Welcome to Brooklyn! Bed-Stuy,Brooklyn,Bedford-Stuyvesant,40.69025,-73.93323,United States,US,Entire home/apt,128,3.0,1.0
564,1312833,Sunnyside NYC/ AC room/ city views/ near Midtown,Queens,Sunnyside,40.73826,-73.92458,United States,US,Private room,924,28.0,2.0
565,1313386,Greenpoint Waterfront Loft,Brooklyn,Greenpoint,40.73049,-73.96115,United States,US,Entire home/apt,186,3.0,4.0
566,1313938,East Village House -- Unique!,Manhattan,East Village,40.72956,-73.97903,United States,US,Entire home/apt,844,1.0,3.0
567,1314490,2-bedroom share in heart of Greenwich Village!,Manhattan,West Village,40.73854,-74.00821,United States,US,Private room,80,90.0,3.0
568,1315042,1 Bedroom Pre War apt,Manhattan,Theater District,40.75877,-73.98863,United States,US,Entire home/apt,709,2.0,2.0
569,1315595,Quiet One Bedroom in Park Slope,Brooklyn,Gowanus,40.67688,-73.9859,United States,US,Entire home/apt,473,7.0,2.0
570,1316147,CreaTive Live-In Artspace/Birdsnest,Brooklyn,Bushwick,40.70051,-73.92204,United States,US,Private room,466,1.0,1.0
571,1316699,RARE Penthouse Oasis featured on DesignSponge,Manhattan,Lower East Side,40.71712,-73.98898,United States,US,Private room,228,30.0,1.0
572,1317252,New Clean Spacious Bed & Breakfast,Staten Island,Emerson Hill,40.60742,-74.14388,United States,US,Private room,629,2.0,1.0
573,1317804,"Sunny, calm room in Victorian home",Brooklyn,Bedford-Stuyvesant,40.68741,-73.95741,United States,US,Private room,520,3.0,1.0
574,1318356,Modern Unique Studio in NYC,Queens,Long Island City,40.75627,-73.9211,United States,US,Entire home/apt,476,30.0,3.0
576,1319461,"Luxury Furnished 1 bedro, Bay Ridge",Brooklyn,Fort Hamilton,40.61927,-74.0307,United States,US,Entire home/apt,523,30.0,4.0
577,1320013,Your Haven in the Upper West Side,Manhattan,Harlem,40.8078,-73.95208,United States,US,Private room,145,7.0,5.0
578,1320565,"Wonderful Studio In Brooklyn, NY!!!",Brooklyn,Bensonhurst,40.61922,-73.99399,United States,US,Entire home/apt,464,1.0,2.0
579,1321118,A Cozy Brooklyn Hideaway,Brooklyn,Clinton Hill,40.68275,-73.96148,United States,US,Entire home/apt,977,4.0,4.0
580,1321670,✿✿✿ COUNTRY COTTAGE IN THE CITY✿✿✿,Manhattan,Lower East Side,40.71813,-73.98416,United States,US,Entire home/apt,970,1.0,2.0
581,1322222,✿✿✿ COUNTRY COTTAGE IN THE CITY✿✿✿,Manhattan,Lower East Side,40.71892,-73.98401,United States,US,Entire home/apt,934,1.0,5.0
582,1322775,"Lovely Bdr in Harlem, Manhattan",Manhattan,Harlem,40.816,-73.95545,United States,US,Private room,898,1.0,5.0
583,1323327,THE BEST DEAL ON THE HUDSON RIVER!!,Manhattan,Harlem,40.82748,-73.95153,United States,US,Private room,275,4.0,3.0
584,1323879,Lovely HUGE Master Bed + Study,Brooklyn,Bedford-Stuyvesant,40.68634,-73.95088,United States,US,Private room,423,3.0,5.0
585,1324432,Newly Reno’d Chic Quiet Exec 1BR,Manhattan,East Village,40.72229,-73.97901,United States,US,Entire home/apt,379,3.0,1.0
586,1324984,1 Bedroom in prime Flatiron,Manhattan,NoHo,40.72956,-73.99287,United States,US,Private room,727,2.0,5.0
587,1325536,Large Artist Floorthru- Greenpoint,Brooklyn,Greenpoint,40.72595,-73.95298,United States,US,Entire home/apt,725,29.0,4.0
588,1326088,Gorgeous PermaGO Private Room in FiDi - 1/2,Manhattan,Tribeca,40.71193,-74.00817,United States,US,Private room,1102,3.0,5.0
590,1327193,BEST DEAL IN CHELSEA 1 bdrm NYC,Manhattan,Chelsea,40.74233,-73.99865,United States,US,Entire home/apt,200,4.0,4.0
591,1327745,Lovely Apartment,Brooklyn,Prospect Heights,40.67424,-73.96665,United States,US,Entire home/apt,921,5.0,2.0
592,1328298,Artsy Loft-like Harlem Apartment,Manhattan,Harlem,40.80486,-73.95298,United States,US,Private room,70,1.0,2.0
593,1328850,Harlem/Manhattan Classic Apartment,Manhattan,Harlem,40.80307,-73.95048,United States,US,Private room,230,55.0,5.0
594,1329402,"BEAUTIFUL APARTMENT, GREAT LOCATION",Brooklyn,Boerum Hill,40.68653,-73.98562,United States,US,Entire home/apt,396,4.0,4.0
605,1335478,Great Bedroom in Downtown Manhattan,Manhattan,Chinatown,40.71611,-73.99828,United States,US,Private room,119,30.0,3.0
606,1336030,Beautiful Brownstone,Brooklyn,Bedford-Stuyvesant,40.67964,-73.93946,United States,US,Entire home/apt,244,7.0,1.0
607,1336582,1BDR - Hell's Kitchen Hideaway,Manhattan,Hell's Kitchen,40.76189,-73.99,United States,US,Private room,697,2.0,1.0
608,1337134,COMFY ROOM/COFFEE AND BAGEL/WEEKLY DISCOUNT,Manhattan,East Village,40.72645,-73.98035,United States,US,Private room,196,1.0,2.0
609,1337687,Oversized Studio in Park Slope,Brooklyn,Sunset Park,40.66293,-73.99833,United States,US,Entire home/apt,510,5.0,1.0
610,1338239,Apt with EmpireState view-Subway around the corner,Brooklyn,Bedford-Stuyvesant,40.69046,-73.95167,United States,US,Entire home/apt,1159,2.0,4.0
611,1338791,Zen Yankee Stadium Pad 5 Minutes To Manhattan!,Bronx,Concourse,40.83001,-73.92158,United States,US,Private room,361,5.0,2.0
612,1339344,Monthly Apartment Rental,Manhattan,East Harlem,40.79239,-73.94535,United States,US,Entire home/apt,1090,28.0,5.0
614,1340448,TURQUOISE: One-Bedroom Apt. in Soho,Manhattan,SoHo,40.72599,-74.00168,United States,US,Private room,588,5.0,4.0
615,1341001,"Lovely pied-à-terre, in an historic building",Brooklyn,Bedford-Stuyvesant,40.68309,-73.94219,United States,US,Entire home/apt,779,3.0,3.0
616,1341553,"Spacious, well furnished, high fl. beautiful views",Manhattan,East Harlem,40.79442,-73.93433,United States,US,Entire home/apt,1114,1.0,4.0
617,1342105,NYC Studio in Heart of Times Square,Manhattan,Hell's Kitchen,40.76166,-73.99675,United States,US,Entire home/apt,676,30.0,3.0
618,1342657,rooms for rent in Queens with piano,Queens,Ridgewood,40.70163,-73.90867,United States,US,Private room,674,1.0,1.0
619,1343210,Large Sunny Luxe Prvt Room/Midtown,Manhattan,Midtown,40.75575,-73.96842,United States,US,Private room,578,2.0,3.0
620,1343762,Spacious Stunning Harlem Townhouse,Manhattan,Harlem,40.80903,-73.94197,United States,US,Entire home/apt,1025,5.0,1.0
621,1344314,Private Room With GREAT Location,Queens,Long Island City,40.74581,-73.95295,United States,US,Private room,1112,30.0,1.0
622,1344867,HUGE Sunny Duplex Loft with Garden,Brooklyn,South Slope,40.66414,-73.98574,United States,US,Entire home/apt,1067,1.0,3.0
623,1345419,LARGE ARTSY Room w/ Loft Bed 4 DOOGLERS!,Manhattan,West Village,40.74,-74.00381,United States,US,Private room,488,30.0,5.0
625,1346524,"LES private apt, 1 bedroom & more",Manhattan,Lower East Side,40.72066,-73.98506,United States,US,Entire home/apt,613,3.0,5.0
626,1347076,"Williamsburg Garden Home, 5 minutes from Manhattan",Brooklyn,Williamsburg,40.71746,-73.95497,United States,US,Entire home/apt,1105,2.0,4.0
627,1347628,"HUGE, modern 2-LEVEL Brooklyn apt",Brooklyn,DUMBO,40.70257,-73.9847,United States,US,Entire home/apt,968,5.0,2.0
628,1348180,charming 2bdrm apt in East Village,Manhattan,East Village,40.72264,-73.9837,United States,US,Entire home/apt,1166,4.0,5.0
629,1348733,LOCATION LOCATION LOCATION Liz's,Manhattan,Kips Bay,40.73833,-73.98186,United States,US,Entire home/apt,1038,30.0,5.0
630,1349285,Manhattan Loft in Prime East Village Location,Manhattan,Greenwich Village,40.73268,-73.99255,United States,US,Entire home/apt,765,30.0,1.0
631,1349837,Nolita Penthouse_Private Deck_Elev_,Manhattan,Chinatown,40.71892,-73.99628,United States,US,Entire home/apt,188,7.0,2.0
632,1350390,Astoria Garden Suite,Queens,Ditmars Steinway,40.77679,-73.91687,United States,US,Entire home/apt,134,28.0,5.0
634,1351494,"Amazing 1 bed, live like a Newyorkr",Manhattan,Gramercy,40.73685,-73.98359,United States,US,Entire home/apt,260,1.0,3.0
635,1352047,Private Room in Fort Green BK close to city,Brooklyn,Fort Greene,40.68501,-73.97019,United States,US,Private room,631,5.0,1.0
636,1352599,Spacious & Charming by Prospect Pk,Brooklyn,Prospect-Lefferts Gardens,40.66068,-73.96003,United States,US,Entire home/apt,810,21.0,2.0
637,1353151,Private Room Near Brooklyn Museum,Brooklyn,Prospect Heights,40.67722,-73.96542,United States,US,Private room,57,1.0,5.0
638,1353703,The Notorious B.N.B. { The Wallace },Brooklyn,Clinton Hill,40.68975,-73.96703,United States,US,Private room,59,1.0,5.0
639,1354256,Clinton Hill 1 Bed Bright Loft Apartment,Brooklyn,Bedford-Stuyvesant,40.69221,-73.95866,United States,US,Entire home/apt,461,6.0,3.0
640,1354808,Great Studio in W. Village - NYC!,Manhattan,West Village,40.72969,-74.00635,United States,US,Entire home/apt,1019,2.0,1.0
641,1355360,The Notorious B.N.B. { The Swoon },Brooklyn,Clinton Hill,40.6893,-73.96602,United States,US,Private room,1038,1.0,3.0
642,1355913,"BIG 1br, SLEEPS 4, dishwashr, TV",Brooklyn,Williamsburg,40.70832,-73.94157,United States,US,Entire home/apt,1156,1.0,5.0
644,1357017,Williamsburg  - Quiet and Comfy stay,Brooklyn,Williamsburg,40.70875,-73.95508,United States,US,Entire home/apt,256,30.0,5.0
645,1357570,One Fabulous Private Room,Manhattan,Inwood,40.85888,-73.92886,United States,US,Private room,683,4.0,3.0
646,1358122,NY/ Big Room for 2 near Manhattan,Bronx,Kingsbridge,40.8679,-73.90023,United States,US,Private room,640,2.0,1.0
647,1358674,Brooklyn Brownstone apartment,Brooklyn,Bedford-Stuyvesant,40.6889,-73.95383,United States,US,Entire home/apt,463,2.0,5.0
648,1359226,big 1 bedroom apt very central,Manhattan,Chelsea,40.75127,-73.99637,United States,US,Entire home/apt,429,5.0,1.0
649,1359779,"Lovely, Large Room in Crown Heights",Brooklyn,Crown Heights,40.67607,-73.94421,United States,US,Private room,1154,3.0,1.0
650,1360331,"Sweet Apt, Steps From Gramercy Park",Manhattan,Gramercy,40.73834,-73.9823,United States,US,Entire home/apt,629,1.0,4.0
651,1360883,Quality Cozy Studio Next to Subway,Queens,Elmhurst,40.7347,-73.88066,United States,US,Entire home/apt,921,4.0,3.0
652,1361436,Scandinavian-apt for up to 5. LES,Manhattan,Lower East Side,40.71876,-73.98851,United States,US,Entire home/apt,479,1.0,4.0
653,1361988,Loft Suite @ Box House Hotel,Brooklyn,Greenpoint,40.73787,-73.95385,United States,US,Entire home/apt,1121,3.0,2.0
654,1362540,4 BEDROOM -2BATHRM WEST VILLAGE DUPLEX  TOWNHOUSE,Manhattan,West Village,40.73066,-74.00287,United States,US,Entire home/apt,735,3.0,2.0
655,1363093,Large & bright 900ft² 1br in WV,Manhattan,West Village,40.73291,-74.00059,United States,US,Entire home/apt,377,4.0,4.0
660,1365854,SPACIOUS PRIVATE LITTLE ITALY FLAT,Manhattan,Chinatown,40.71582,-73.99902,United States,US,Entire home/apt,538,1.0,2.0
661,1366406,The Lenox in Harlem,Manhattan,Harlem,40.81068,-73.94288,United States,US,Private room,1029,1.0,1.0
662,1366959,The Lenox in Harlem,Manhattan,Harlem,40.81122,-73.94279,United States,US,Entire home/apt,792,5.0,1.0
663,1367511,Heart & Soul of Greenwich Village,Manhattan,Greenwich Village,40.73129,-73.99944,United States,US,Entire home/apt,262,3.0,2.0
664,1368063,Prime Williamsburg Loft off Bedford,Brooklyn,Williamsburg,40.71628,-73.95737,United States,US,Private room,58,2.0,4.0
665,1368616,Private Bdrm /Bath 1 block Ctrl Prk,Manhattan,Upper West Side,40.78558,-73.9726,United States,US,Private room,53,1.0,3.0
666,1369168,+Highly Satisfactory LES dwelling++,Manhattan,Chinatown,40.7146,-73.991,United States,US,Private room,792,4.0,4.0
667,1369720,Whole apartment / 2 bedroom in NYC,Manhattan,East Harlem,40.79493,-73.94462,United States,US,Entire home/apt,383,3.0,2.0
668,1370272,"Spacious, modern loft in awesome neighborhood",Brooklyn,Sunset Park,40.6623,-73.99049,United States,US,Entire home/apt,1145,120.0,3.0
669,1370825,Loft Suite @ The Box House Hotel,Brooklyn,Greenpoint,40.73693,-73.95284,United States,US,Entire home/apt,1113,3.0,3.0
671,1371929,Loft Suite @ The Box House Hotel,Brooklyn,Greenpoint,40.73794,-73.95254,United States,US,Entire home/apt,685,3.0,2.0
672,1372482,Well Kept  Private Room around  Brighton  Beach,Brooklyn,Brighton Beach,40.58147,-73.96726,United States,US,Private room,637,1.0,1.0
673,1373034,Large 1 Bedroom furnished on UWS,Manhattan,Upper West Side,40.79771,-73.96323,United States,US,Entire home/apt,678,2.0,2.0
674,1373586,Chez Carine - Privacy in Manhattan,Manhattan,Harlem,40.81512,-73.94692,United States,US,Private room,878,2.0,3.0
682,1378005,1 BR w/ Terrace @ Box House Hotel,Brooklyn,Greenpoint,40.73714,-73.95296,United States,US,Private room,847,3.0,4.0
683,1378557,Superior @ Box House,Brooklyn,Greenpoint,40.73731,-73.9545,United States,US,Private room,232,3.0,2.0
684,1379109,"Read it 1st, A seprat fur BR, low $",Queens,Jackson Heights,40.74965,-73.89344,United States,US,Private room,241,5.0,4.0
685,1379662,2 BR Duplex @ Box House Hotel,Brooklyn,Greenpoint,40.73793,-73.95316,United States,US,Private room,310,3.0,3.0
686,1380214,Husband & Wife Art-Filled Apartment,Brooklyn,Clinton Hill,40.68197,-73.96549,United States,US,Entire home/apt,627,1.0,5.0
687,1380766,"3BR, 2 bathroom condo in Bushwick",Brooklyn,Bushwick,40.70271,-73.91566,United States,US,Entire home/apt,564,2.0,4.0
688,1381318,"The BLUE OWL:
VEGETARIAN WBURG W PATIO & BACKYARD!",Brooklyn,Williamsburg,40.7116,-73.9529,United States,US,Private room,499,30.0,2.0
689,1381871,Cozy 2 Bedroom 20 Min from City,Brooklyn,Bedford-Stuyvesant,40.69241,-73.94885,United States,US,Entire home/apt,143,2.0,3.0
690,1382423,NOLITA! LOCATION! LOCATION! VIEWS! FREE GYM!,Manhattan,Nolita,40.72004,-73.99424,United States,US,Entire home/apt,778,7.0,3.0
691,1382975,"Entire apt NYC, Queens. 15 min from Times Square.",Queens,Sunnyside,40.74511,-73.92398,United States,US,Entire home/apt,692,10.0,5.0
692,1383528,Luxury Chelsea Townhouse at the High Line,Manhattan,Chelsea,40.74599,-74.00253,United States,US,Entire home/apt,499,2.0,1.0
693,1384080,Alchemy BnB - room in artist loft,Brooklyn,Cobble Hill,40.68946,-73.99385,United States,US,Private room,844,4.0,5.0
694,1384632,Sunny! 2br Steps to train/restaurants - 15 to NYC,Brooklyn,Bedford-Stuyvesant,40.68226,-73.95473,United States,US,Entire home/apt,661,30.0,4.0
695,1385185,Zen Den (Airport Pickup: JFK & LGA),Brooklyn,Cypress Hills,40.67855,-73.8896,United States,US,Private room,128,90.0,4.0
696,1385737,Heart of Williamsburg. Brand New.,Brooklyn,Williamsburg,40.71408,-73.9489,United States,US,Private room,1025,3.0,2.0
697,1386289,"Fresh, Clean Brooklyn Garden Apt.",Brooklyn,Clinton Hill,40.68618,-73.96144,United States,US,Entire home/apt,758,3.0,5.0
698,1386841,Guest Apartment in Owner Occupied Home,Brooklyn,Park Slope,40.67379,-73.98454,United States,US,Entire home/apt,963,3.0,5.0
699,1387394,My Home Is Your Home,Queens,St. Albans,40.70554,-73.76637,United States,US,Private room,738,4.0,3.0
700,1387946,Spacious & Stylish Chelsea One Bedroom Apartment,Manhattan,West Village,40.74031,-74.00532,United States,US,Entire home/apt,328,4.0,4.0
701,1388498,CHELSEA 1 Bdrm Plus Sleeping Loft!!,Manhattan,Chelsea,40.74618,-74.00392,United States,US,Entire home/apt,177,365.0,1.0
702,1389051,Spacious room in beautiful apt!,Manhattan,Harlem,40.81872,-73.94567,United States,US,Private room,1137,1.0,1.0
703,1389603,"Oceanview,close to Manhattan",Staten Island,Arrochar,40.59251,-74.06479,United States,US,Entire home/apt,459,2.0,5.0
704,1390155,"Affordable rooms,all transportation",Staten Island,Arrochar,40.59101,-74.06685,United States,US,Private room,1012,7.0,4.0
705,1390708,"Budget stay, near transportation",Staten Island,Arrochar,40.59262,-74.06659,United States,US,Entire home/apt,845,2.0,1.0
706,1391260,Fort Greene brownstone 1BR- SUBLET,Brooklyn,Fort Greene,40.69142,-73.97203,United States,US,Entire home/apt,937,7.0,1.0
707,1391812,NewYork Modern Pre-War LoftStudio,Manhattan,Upper East Side,40.76928,-73.95021,United States,US,Entire home/apt,761,2.0,4.0
708,1392364,Cozy Artist Duplex **Bedstuy Charm**,Brooklyn,Bedford-Stuyvesant,40.68338,-73.95289,United States,US,Entire home/apt,563,3.0,3.0
709,1392917,Apartment in Best location in NYC,Manhattan,West Village,40.72953,-74.00462,United States,US,Entire home/apt,294,7.0,1.0
710,1393469,Inspired in Historic Downtown NYC!,Manhattan,Financial District,40.70523,-74.01345,United States,US,Private room,483,7.0,3.0
711,1394021,Chelsea/West Village - 2bdrm apt,Manhattan,Chelsea,40.74025,-74.00161,United States,US,Private room,313,5.0,4.0
712,1394574,1500+ sq ft 2BR West Village Loft,Manhattan,West Village,40.73378,-74.00429,United States,US,Entire home/apt,878,7.0,5.0
713,1395126,Cozy & Clean Lower East Side Apt.,Manhattan,Lower East Side,40.72087,-73.99022,United States,US,Entire home/apt,121,31.0,1.0
714,1395678,Spacious Townhome Apt in Brooklyn,Brooklyn,East Flatbush,40.64468,-73.94219,United States,US,Entire home/apt,86,4.0,1.0
715,1396231,Chic + Stylish room in heart of LowerEastSide NYC!,Manhattan,Lower East Side,40.7193,-73.98966,United States,US,Private room,1165,5.0,4.0
716,1396783,Landmark 2 Bedroom West Village NYC,Manhattan,West Village,40.73312,-74.0042,United States,US,Entire home/apt,640,4.0,5.0
717,1397335,2 bedroom apt in charming brick townhouse,Brooklyn,Fort Greene,40.69778,-73.97676,United States,US,Entire home/apt,342,3.0,2.0
718,1397887,Room in East Village with Private Entrance,Manhattan,East Village,40.72534,-73.98591,United States,US,Private room,1014,2.0,4.0
719,1398440,Cozy&Clean in a great neighborhood,Manhattan,Harlem,40.82151,-73.94516,United States,US,Entire home/apt,494,1.0,3.0
720,1398992,Prime Williamsburg 1/BD New Condo,Brooklyn,Williamsburg,40.72059,-73.9567,United States,US,Entire home/apt,155,180.0,4.0
721,1399544,City Skyline Views from every room!,Queens,Sunnyside,40.74558,-73.92324,United States,US,Private room,367,2.0,5.0
722,1400097,Contemporary & Classic Sanctuary on the Hudson,Manhattan,Upper West Side,40.79433,-73.9765,United States,US,Entire home/apt,90,2.0,1.0
723,1400649,Comfortable Manhattanville,Manhattan,Morningside Heights,40.81055,-73.95549,United States,US,Private room,608,7.0,1.0
724,1401201,Private room w/ queen bed + rooftop,Brooklyn,Crown Heights,40.6711,-73.95231,United States,US,Private room,659,2.0,4.0
725,1401754,Zen Eyrie –Airport Pick-Up: JFK/LGA,Brooklyn,Cypress Hills,40.67962,-73.88928,United States,US,Private room,290,90.0,1.0
727,1402858,Luxury NYC 2 Bedroom with Terrace,Manhattan,Upper East Side,40.76128,-73.96463,United States,US,Entire home/apt,907,7.0,5.0
728,1403410,Bright unique designer loft in Soho,Manhattan,Nolita,40.72313,-73.99438,United States,US,Entire home/apt,158,5.0,5.0
729,1403963,Spacious  2 bed Loft apartment Bedford L,Brooklyn,Williamsburg,40.7177,-73.95576,United States,US,Entire home/apt,1170,4.0,1.0
730,1404515,Beautiful studio by Central Park,Manhattan,Upper West Side,40.78448,-73.97289,United States,US,Entire home/apt,1044,30.0,4.0
732,1405620,SUNNY 1 Bedroom APT in Fort Greene - BROOKLYN,Brooklyn,Fort Greene,40.68737,-73.97125,United States,US,Entire home/apt,282,15.0,2.0
733,1406172,West Village cozy 2 bedroom  NYC,Manhattan,Chelsea,40.74139,-74.0005,United States,US,Entire home/apt,436,4.0,1.0
734,1406724,2 Bedroom Gem - Prime LES Location,Manhattan,Lower East Side,40.71992,-73.98773,United States,US,Entire home/apt,673,4.0,5.0
735,1407277,REAL 2BR-HEART OF SOHO-LITTLE ITALY,Manhattan,Little Italy,40.71905,-73.99677,United States,US,Entire home/apt,115,28.0,5.0
736,1407829,BIG ROOM / DOWNTOWN  LOFT /,Manhattan,Financial District,40.70741,-74.00102,United States,US,Private room,979,30.0,4.0
737,1408381,Large Sunny Bedroom in QNS NYC,Queens,Rego Park,40.73349,-73.86009,United States,US,Private room,896,1.0,3.0
738,1408933,Home Away From Home-Room in Bronx,Bronx,Wakefield,40.89557,-73.8447,United States,US,Private room,756,2.0,3.0
739,1409486,Private clean pleasant spacious room.,Brooklyn,Kensington,40.64277,-73.97296,United States,US,Private room,422,2.0,3.0
740,1410038,"Charming Hotel Alternative
Mount Sinai",Manhattan,East Harlem,40.79111,-73.94466,United States,US,Private room,586,3.0,5.0
741,1410590,SUNNY 2-bdrm CHILD-friendly Uptwn by Centrl Park!,Manhattan,Harlem,40.79951,-73.95257,United States,US,Entire home/apt,666,2.0,3.0
742,1411143,Resort-like living in Williamsburg,Brooklyn,Williamsburg,40.71647,-73.93974,United States,US,Entire home/apt,1183,30.0,2.0
743,1411695,Hudson Yards with views of The Highline Park,Manhattan,Chelsea,40.75114,-74.00195,United States,US,Entire home/apt,175,3.0,4.0
744,1412247,Brooklyn: A Huge Bedroom + Good Vibes,Brooklyn,Crown Heights,40.66431,-73.93216,United States,US,Private room,72,3.0,2.0
745,1412800,One stop from Midtown Manhattan!,Queens,Long Island City,40.74579,-73.95012,United States,US,Private room,620,2.0,5.0
746,1413352,"Private Room Very Near L train, Bushwick",Brooklyn,Bushwick,40.70278,-73.92673,United States,US,Private room,370,15.0,5.0
747,1413904,Cozy New York  City private room,Queens,Woodside,40.74409,-73.91122,United States,US,Private room,784,2.0,3.0
748,1414456,Bed-stuy Royal Room,Brooklyn,Bedford-Stuyvesant,40.68812,-73.93254,United States,US,Private room,174,10.0,4.0
749,1415009,SUPER CUTE EAST VILLAGE APARTMENT,Manhattan,East Village,40.72454,-73.99151,United States,US,Entire home/apt,1078,3.0,2.0
750,1415561,GREAP STUDIO / 4PPL IN MIDTOWN,Brooklyn,Williamsburg,40.71073,-73.96207,United States,US,Private room,65,1.0,4.0
751,1416113,BEDFORD AV.  ROOM IN WILLIAMSBURG..,Brooklyn,Williamsburg,40.71028,-73.96128,United States,US,Private room,891,2.0,3.0
752,1416666,Sleep & Wake near Botanical Gardens,Brooklyn,Prospect-Lefferts Gardens,40.65772,-73.96131,United States,US,Entire home/apt,474,4.0,1.0
753,1417218,Tranquil in the heart of Brooklyn 2,Brooklyn,Bedford-Stuyvesant,40.68884,-73.95059,United States,US,Private room,440,5.0,1.0
754,1417770,Tranquil in the heart of Brooklyn 1,Brooklyn,Bedford-Stuyvesant,40.6865,-73.95372,United States,US,Private room,627,5.0,2.0
755,1418323,"Easy, comfortable studio in Midtown",Manhattan,Midtown,40.75282,-73.97315,United States,US,Entire home/apt,1078,365.0,3.0
756,1418875,Huge luxury 1BR apt near Central Park South(4 ppl),Manhattan,Upper East Side,40.76373,-73.96897,United States,US,Entire home/apt,57,3.0,4.0
757,1419427,Beautiful brownstone apartment,Manhattan,Greenwich Village,40.73388,-73.99452,United States,US,Entire home/apt,638,2.0,3.0
758,1419979,1 Bd. MANHATTAN NY Entire Apt. 1 yr-6 months min.,Manhattan,Washington Heights,40.85774,-73.92901,United States,US,Entire home/apt,395,122.0,1.0
759,1420532,Luxury Designer Downtown Apartment,Manhattan,East Village,40.72257,-73.98465,United States,US,Entire home/apt,516,3.0,4.0
761,1421636,"SUNNY, SPACIOUS APT. in  FT. GREENE",Brooklyn,Fort Greene,40.69135,-73.97321,United States,US,Entire home/apt,1161,5.0,5.0
762,1422189,Guest Room in Authentic Williamsburg Factory Loft,Brooklyn,Williamsburg,40.70513,-73.95505,United States,US,Private room,456,2.0,3.0
763,1422741,6 Bedroom Landmark West Village Townhouse,Manhattan,West Village,40.73301,-74.00268,United States,US,Entire home/apt,125,5.0,4.0
764,1423293,Beautiful bed and bath - Manhattan,Manhattan,East Harlem,40.79793,-73.93612,United States,US,Private room,815,6.0,2.0
765,1423846,Beautiful Room Near Central Park!,Manhattan,Harlem,40.80285,-73.95166,United States,US,Private room,188,2.0,2.0
766,1424398,Fantastic 1-bedroom basement apt.,Brooklyn,Bushwick,40.70642,-73.91665,United States,US,Entire home/apt,612,3.0,3.0
767,1424950,"Private Clinton Hill, Brooklyn Apt",Brooklyn,Clinton Hill,40.68156,-73.96537,United States,US,Entire home/apt,80,5.0,4.0
768,1425502,Charming furnished Studio-Loft,Manhattan,Upper East Side,40.77368,-73.95198,United States,US,Entire home/apt,117,15.0,1.0
769,1426055,Lovely 2 bedroom apartment with backyard access,Brooklyn,Bedford-Stuyvesant,40.68631,-73.93702,United States,US,Entire home/apt,632,3.0,4.0
771,1427159,"The Carlton, Brooklyn brownstone Duplex w/ garden",Brooklyn,Prospect Heights,40.67847,-73.97038,United States,US,Entire home/apt,1122,3.0,1.0
772,1427712,Comfortable Manhattanville.,Manhattan,Harlem,40.81371,-73.95585,United States,US,Private room,122,6.0,2.0
773,1428264,Beautiful lrg 1800's syle apt share,Brooklyn,Greenpoint,40.72868,-73.95835,United States,US,Private room,213,7.0,1.0
774,1428816,Location wins for East Village Apt,Manhattan,East Village,40.73168,-73.98662,United States,US,Entire home/apt,652,30.0,1.0
775,1429369,Sunny Entire Apt with Romantic Bedroom,Brooklyn,Prospect-Lefferts Gardens,40.65689,-73.9533,United States,US,Entire home/apt,1003,6.0,3.0
776,1429921,Furnished room for rent - Manhattan,Manhattan,East Harlem,40.7928,-73.93967,United States,US,Private room,237,3.0,3.0
777,1430473,Large Room in a Huge NY apartment.,Queens,Astoria,40.77117,-73.91905,United States,US,Private room,911,5.0,1.0
778,1431025,West Village NYC Sun-filled Studio!,Manhattan,West Village,40.73729,-74.00807,United States,US,Entire home/apt,74,30.0,5.0
780,1432130,Huge Apartment!  Amazing View!,Manhattan,Harlem,40.82977,-73.94071,United States,US,Entire home/apt,471,3.0,4.0
781,1432682,#1 Yellow Block BnB/see at Net Flix Show Stay Here,Brooklyn,Bedford-Stuyvesant,40.68492,-73.95489,United States,US,Entire home/apt,873,4.0,5.0
782,1433235,Cozy Brownstone Inn I(studio),Brooklyn,Bedford-Stuyvesant,40.68255,-73.91957,United States,US,Entire home/apt,911,3.0,2.0
783,1433787,Crown Height's Brooklyn Cozy Apt,Brooklyn,Crown Heights,40.67392,-73.94662,United States,US,Entire home/apt,843,5.0,1.0
784,1434339,Amazing West Village 2br,Manhattan,West Village,40.73879,-74.00425,United States,US,Entire home/apt,706,27.0,5.0
786,1435444,Beautiful Private Bedroom - Downstairs,Manhattan,Harlem,40.80671,-73.95082,United States,US,Private room,146,1.0,2.0
787,1435996,Kensington/Ditmas Park pied-a-terre,Brooklyn,Kensington,40.6433,-73.97386,United States,US,Entire home/apt,261,30.0,4.0
788,1436548,QT STUDIO FOR ROMANTIC COUPLES,Manhattan,Chinatown,40.71601,-73.99123,United States,US,Entire home/apt,1059,3.0,4.0
789,1437101,"Own Room & Bath, Sunny Town House, 18"" to Wall St",Brooklyn,Bedford-Stuyvesant,40.68106,-73.9292,United States,US,Private room,701,3.0,5.0
790,1437653,Cozy & Charming Boerum Hill Flat,Brooklyn,Gowanus,40.68131,-73.98879,United States,US,Entire home/apt,279,6.0,3.0
791,1438205,Park Slope Brooklyn!  Sunny Bedroom.,Brooklyn,Park Slope,40.67264,-73.98136,United States,US,Private room,335,3.0,4.0
795,1440415,Stylish Garden House - Trendy area,Brooklyn,Williamsburg,40.71422,-73.9484,United States,US,Entire home/apt,451,19.0,4.0
796,1440967,Hells Kitchen Ground Fl 1-bedroom,Manhattan,Hell's Kitchen,40.76001,-73.99133,United States,US,Entire home/apt,831,3.0,1.0
797,1441519,Pre War Park Slope on Prospect Park,Brooklyn,South Slope,40.66441,-73.97974,United States,US,Private room,214,4.0,2.0
798,1442071,Charming Apt in the Best Location!,Manhattan,West Village,40.73362,-74.00923,United States,US,Entire home/apt,767,5.0,2.0
800,1443176,Amazing 1 bedroom apt with NYC View,Manhattan,Chelsea,40.74494,-73.9998,United States,US,Entire home/apt,1081,1.0,5.0
801,1443728,Great spacious room by the L train!,Brooklyn,Bushwick,40.69657,-73.9129,United States,US,Private room,316,15.0,3.0
802,1444281,Charming Brooklyn Studio,Brooklyn,Crown Heights,40.67106,-73.95463,United States,US,Entire home/apt,1009,3.0,5.0
803,1444833,Private Room in Brownstone,Manhattan,Harlem,40.80748,-73.95589,United States,US,Private room,1178,2.0,2.0
804,1445385,Bed Stuy Pride! Welcome to Brooklyn,Brooklyn,Bedford-Stuyvesant,40.68991,-73.93179,United States,US,Entire home/apt,322,3.0,4.0
805,1445938,Lovely Hell's Kitchen Studio...,Manhattan,Hell's Kitchen,40.76147,-73.99152,United States,US,Entire home/apt,993,2.0,4.0
806,1446490,HOT SPOT FOR 20 AND 30 SOMETHING'S,Brooklyn,Bedford-Stuyvesant,40.68174,-73.91921,United States,US,Entire home/apt,656,2.0,3.0
807,1447042,"Cozy, Clean Cobble Hill Brownstone",Brooklyn,Cobble Hill,40.68538,-74.00056,United States,US,Entire home/apt,233,3.0,5.0
808,1447594,Bright Loft Apt w Skylight in Wburg,Brooklyn,Williamsburg,40.70839,-73.94289,United States,US,Entire home/apt,512,6.0,2.0
809,1448147,"Cozy, beautiful doormen studio-",Brooklyn,Fort Greene,40.69018,-73.98107,United States,US,Entire home/apt,97,3.0,1.0
810,1448699,Carroll Gardens Gem-2BD with Garden,Brooklyn,Carroll Gardens,40.68128,-73.99522,United States,US,Entire home/apt,1135,31.0,5.0
811,1449251,Sunny 1BR Center of East Village!,Manhattan,East Village,40.72948,-73.98694,United States,US,Entire home/apt,279,8.0,4.0
812,1449804,"2BR in Cobble Hill, Brooklyn, NY",Brooklyn,Carroll Gardens,40.68353,-73.9914,United States,US,Entire home/apt,554,2.0,1.0
813,1450356,Perfect East Village Apartment,Manhattan,East Village,40.72506,-73.98865,United States,US,Entire home/apt,664,2.0,1.0
815,1451461,Beautiful SoHo Luxury Apartment,Manhattan,SoHo,40.7253,-73.99916,United States,US,Entire home/apt,108,5.0,3.0
816,1452013,2 Rooms in Cottage NYC,Queens,Long Island City,40.75295,-73.93228,United States,US,Private room,1127,2.0,2.0
817,1452565,Zen Minimalist w/Garden- Bedford L Stop,Brooklyn,Greenpoint,40.71947,-73.95252,United States,US,Entire home/apt,973,4.0,2.0
818,1453117,Between Two Bridges 2BD -Whole Apt!,Manhattan,Chinatown,40.71283,-73.99703,United States,US,Entire home/apt,696,30.0,1.0
819,1453670,BIG LUXURY LINCOLN CENTER AREA STUDIO + !!,Manhattan,Upper West Side,40.77338,-73.98887,United States,US,Entire home/apt,200,7.0,4.0
820,1454222,Brooklyn Beauty - Large 2 bedroom Apartment,Brooklyn,Crown Heights,40.67385,-73.94405,United States,US,Entire home/apt,777,5.0,1.0
821,1454774,"Entire Apartment in Astoria, 15mins from Manhattan",Queens,Astoria,40.76856,-73.91828,United States,US,Entire home/apt,290,5.0,1.0
822,1455327,Gorgeous pvt room in West Village,Manhattan,West Village,40.73908,-74.00378,United States,US,Private room,1008,3.0,1.0
823,1455879,1 bedroom apt in Midtown West,Manhattan,Hell's Kitchen,40.7625,-73.9869,United States,US,Entire home/apt,348,3.0,4.0
824,1456431,Sunny and spacious bedroom,Brooklyn,Bushwick,40.69755,-73.91187,United States,US,Private room,450,60.0,5.0
825,1456984,Beautiful Spacious One Bedroom,Brooklyn,Crown Heights,40.67335,-73.96,United States,US,Entire home/apt,304,5.0,2.0
826,1457536,Room next to Columbia Uni.,Manhattan,Harlem,40.80497,-73.95146,United States,US,Entire home/apt,946,1.0,4.0
827,1458088,"Big Apt for Funky Art /Music Lovers, Outdoor Patio",Brooklyn,Williamsburg,40.70736,-73.94331,United States,US,Entire home/apt,1099,4.0,5.0
828,1458640,Loft Suite @ The Box House Hotel,Brooklyn,Greenpoint,40.73683,-73.9543,United States,US,Entire home/apt,237,3.0,1.0
829,1459193,NYC Summer Getaway | Full Home 2BR,Queens,Astoria,40.76444,-73.92607,United States,US,Entire home/apt,241,3.0,2.0
830,1459745,Loft Suite @ The Box House Hotel,Brooklyn,Greenpoint,40.7389,-73.95395,United States,US,Entire home/apt,1186,3.0,5.0
831,1460297,Beautiful New Garden Apartment,Manhattan,Upper West Side,40.77611,-73.97808,United States,US,Entire home/apt,626,1.0,3.0
832,1460850,Loft Suite @ Box House Hotel,Brooklyn,Greenpoint,40.73806,-73.95462,United States,US,Entire home/apt,413,3.0,3.0
833,1461402,Loft Suite @ The Box House Hotel,Brooklyn,Greenpoint,40.73661,-73.95479,United States,US,Entire home/apt,511,3.0,4.0
834,1461954,Loft Suite @ The Box House Hotel,Brooklyn,Greenpoint,40.73857,-73.95435,United States,US,Entire home/apt,659,3.0,4.0
835,1462507,"Lovely apt in Williamsburg, BK",Brooklyn,Williamsburg,40.711,-73.96225,United States,US,Entire home/apt,285,3.0,5.0
836,1463059,Williamsburg HUGE SUNNY next2train!,Brooklyn,Williamsburg,40.70686,-73.95365,United States,US,Private room,833,28.0,2.0
837,1463611,Loft Suite @ Box House Hotel,Brooklyn,Greenpoint,40.73857,-73.95299,United States,US,Entire home/apt,883,3.0,1.0
838,1464163,Modern apartment w/ gorgeous view,Brooklyn,Williamsburg,40.71095,-73.95239,United States,US,Private room,921,3.0,1.0
839,1464716,"Sunny, clean br available",Brooklyn,Williamsburg,40.70918,-73.94881,United States,US,Private room,629,7.0,3.0
840,1465268,Have Whole Apt! Prime Williamsburg!,Brooklyn,Williamsburg,40.71685,-73.96573,United States,US,Entire home/apt,130,1.0,5.0
841,1465820,Panoramic View Central Park & NYC,Manhattan,Upper West Side,40.7909,-73.96762,United States,US,Entire home/apt,1128,3.0,4.0
842,1466373,E Williamsburg Apartment with Yard,Brooklyn,Williamsburg,40.71143,-73.94159,United States,US,Private room,459,2.0,5.0
844,1467477,Sublet in Brooklyn/Lefferts Gardens,Brooklyn,Crown Heights,40.66469,-73.96091,United States,US,Private room,802,5.0,4.0
845,1468030,"Cozy Corner, Bedford Ave  Brooklyn!",Brooklyn,Bedford-Stuyvesant,40.68855,-73.95405,United States,US,Private room,314,5.0,1.0
846,1468582,"HISTORIC WILLIAMSBURG, BKLYN #1",Brooklyn,Williamsburg,40.71653,-73.95554,United States,US,Private room,375,3.0,5.0
847,1469134,Inexpensive apartment in exchange for cat-care,Brooklyn,Fort Greene,40.69309,-73.97074,United States,US,Private room,572,3.0,5.0
848,1469686,"Private room in 2 br Apt, Wburg, BK",Brooklyn,Williamsburg,40.70638,-73.96627,United States,US,Private room,894,1.0,2.0
849,1470239,"Bright, Airy Williamsburg Apt",Brooklyn,Williamsburg,40.71629,-73.95786,United States,US,Entire home/apt,949,14.0,3.0
850,1470791,Large Double Room  Queenbed Wifi,Brooklyn,Bedford-Stuyvesant,40.68622,-73.94675,United States,US,Private room,495,2.0,3.0
851,1471343,"Low$pacious in Williamsburg, Bklyn",Brooklyn,Williamsburg,40.71635,-73.94609,United States,US,Private room,584,3.0,4.0
852,1471896,1 Bdrm in 2 Bdrm Apt in Upper East Lux Drmn Bldng,Manhattan,Upper East Side,40.77272,-73.95307,United States,US,Private room,281,3.0,3.0
853,1472448,Charming 1BD in SoHo,Manhattan,SoHo,40.72509,-74.00304,United States,US,Entire home/apt,1022,5.0,5.0
854,1473000,Feel like you never leave your home,Brooklyn,East New York,40.66795,-73.89232,United States,US,Entire home/apt,186,1.0,1.0
865,1479076,Giant Sunny Bedroom & Private Bath in my Apartment,Manhattan,Upper West Side,40.79044,-73.97513,United States,US,Private room,1055,3.0,1.0
866,1479628,Prime location! Backyard & outdoor shower! Unique!,Brooklyn,Greenpoint,40.72668,-73.95762,United States,US,Private room,300,14.0,4.0
867,1480180,"Private Room in Artist's Home, Stapleton, SI",Staten Island,Clifton,40.62318,-74.07848,United States,US,Private room,1174,1.0,3.0
868,1480732,Large Sunny Bedroom with Bay Window,Manhattan,Harlem,40.82286,-73.94596,United States,US,Private room,131,3.0,1.0
869,1481285,Harlem/Hamilton Heights Sunny Room,Manhattan,Harlem,40.82451,-73.94457,United States,US,Private room,97,3.0,5.0
870,1481837,Clinton Hill Duplex near Pratt w/Balcony!,Brooklyn,Bedford-Stuyvesant,40.69348,-73.95927,United States,US,Private room,648,3.0,4.0
871,1482389,"Sunny 1 BR, West 80s & Central Park",Manhattan,Upper West Side,40.78443,-73.97399,United States,US,Entire home/apt,772,30.0,5.0
872,1482942,"2 BD / 2BA WITH GARDEN, SLEEPS 6",Brooklyn,Crown Heights,40.67679,-73.95639,United States,US,Entire home/apt,286,4.0,5.0
873,1483494,COMFORTABLE ROOM,Manhattan,East Harlem,40.79107,-73.94381,United States,US,Private room,481,3.0,5.0
874,1484046,Charming Ridgewood Soulful  Walk-Up,Queens,Ridgewood,40.70215,-73.91139,United States,US,Private room,398,2.0,5.0
875,1484599,"Comfortable, well-appointed room",Brooklyn,Prospect Heights,40.67339,-73.96519,United States,US,Private room,1074,2.0,5.0
876,1485151,2ND AVENUE OFF HOUSTON/LOFTLIKE STU,Manhattan,Lower East Side,40.72209,-73.99274,United States,US,Entire home/apt,788,30.0,4.0
877,1485703,Share in NYC's trendy East Village,Manhattan,East Village,40.73171,-73.98717,United States,US,Private room,357,3.0,4.0
878,1486255,Historic Brooklyn 2-Bedroom Apt,Brooklyn,Bedford-Stuyvesant,40.69213,-73.951,United States,US,Entire home/apt,1171,2.0,2.0
879,1486808,APT W/ OUTDOOR SPACE!! LONG TERM RENTAL PREFERRED!,Manhattan,West Village,40.73237,-74.00608,United States,US,Entire home/apt,736,14.0,4.0
880,1487360,Come and go as  you please in BKLN!,Brooklyn,Kensington,40.64354,-73.97777,United States,US,Entire home/apt,887,3.0,2.0
881,1487912,Room in Huge 1200sf W Harlem Suite,Manhattan,Harlem,40.80343,-73.9531,United States,US,Private room,764,3.0,3.0
882,1488465,"Huge, Sunny, Open Loft in Brooklyn",Brooklyn,Bushwick,40.70462,-73.9228,United States,US,Entire home/apt,480,2.0,4.0
883,1489017,Cozy Nook in Heart of Williamsburg,Brooklyn,Williamsburg,40.71394,-73.96267,United States,US,Private room,278,3.0,5.0
884,1489569,Peaceful Room...,Brooklyn,Bay Ridge,40.6339,-74.02035,United States,US,Private room,327,4.0,3.0
886,1490674,Harlem on the Range,Manhattan,Harlem,40.8076,-73.94433,United States,US,Entire home/apt,488,30.0,5.0
887,1491226,Amazing Park Slope Duplex with Deck,Brooklyn,South Slope,40.66485,-73.98343,United States,US,Entire home/apt,433,2.0,1.0
888,1491778,Entire 2 Bedroom Apartment in Williamsburg,Brooklyn,Williamsburg,40.71279,-73.95852,United States,US,Entire home/apt,758,4.0,4.0
889,1492331,Big Bright E Village 2BR (Baby Nursery),Manhattan,Gramercy,40.73294,-73.98282,United States,US,Entire home/apt,910,5.0,1.0
890,1492883,Private Manhattan Studio on Harlem/Heights Border,Manhattan,Washington Heights,40.83456,-73.9457,United States,US,Entire home/apt,662,3.0,3.0
891,1493435,"Luxury Williamsburg, Brooklyn LOFT",Brooklyn,Williamsburg,40.72091,-73.95814,United States,US,Entire home/apt,144,2.0,2.0
892,1493988,Artist Loft-McCarren Park-Williamsburg-BrooklynNYC,Brooklyn,Williamsburg,40.71819,-73.95414,United States,US,Private room,705,2.0,1.0
893,1494540,Chelsea/Meat Packing  Artist Space!,Manhattan,West Village,40.73887,-74.00342,United States,US,Private room,1145,2.0,4.0
894,1495092,Elegant Spacious Family Townhouse,Manhattan,Upper West Side,40.77892,-73.98238,United States,US,Entire home/apt,835,30.0,1.0
895,1495645,Large Master Bedroom - Williamsburg,Brooklyn,Williamsburg,40.71336,-73.96192,United States,US,Private room,508,2.0,3.0
896,1496197,Central Park Fifth Av MET Museum,Manhattan,Upper East Side,40.77688,-73.96177,United States,US,Private room,92,1.0,2.0
897,1496749,Real Williamsburg Artist Loft,Brooklyn,Williamsburg,40.71368,-73.94478,United States,US,Entire home/apt,964,3.0,1.0
898,1497301,Lovely Upper East Yorkville 1 BDRM,Manhattan,Upper East Side,40.7761,-73.95265,United States,US,Entire home/apt,1113,4.0,4.0
899,1497854,Cozy Upper East Side Studio,Manhattan,Upper East Side,40.77471,-73.95574,United States,US,Entire home/apt,1167,2.0,4.0
900,1498406,"Large Cozy Room #2, Landmark Home 1 Block to PRATT",Brooklyn,Clinton Hill,40.68625,-73.96446,United States,US,Private room,352,3.0,3.0
901,1498958,"Lovely studio in East Village, NY",Manhattan,East Village,40.725,-73.98851,United States,US,Entire home/apt,270,5.0,1.0
902,1499511,NYC Summer Discount  1 BR Gramercy Apt,Manhattan,Kips Bay,40.74016,-73.97665,United States,US,Entire home/apt,510,3.0,1.0
903,1500063,"Awesome views, Central location",Manhattan,Midtown,40.75023,-73.98293,United States,US,Entire home/apt,758,10.0,4.0
904,1500615,Spacious Manhattan Apartment near Central Park,Manhattan,Upper West Side,40.78867,-73.96809,United States,US,Entire home/apt,1121,3.0,5.0
905,1501168,Entire Apt: Sunny 2bd! 15min to NYC,Brooklyn,Crown Heights,40.66604,-73.95914,United States,US,Entire home/apt,52,3.0,5.0
906,1501720,Your Historic House in Brooklyn,Brooklyn,Flatbush,40.63593,-73.96076,United States,US,Entire home/apt,365,4.0,2.0
907,1502272,Creative Director's Chinatown Loft,Manhattan,Chinatown,40.71638,-73.99167,United States,US,Entire home/apt,1045,15.0,5.0
908,1502824,"HOSTING YOUR COZY,  ECLECTIC MILIEU FOR NYC VISIT",Manhattan,Inwood,40.86658,-73.92558,United States,US,Private room,151,7.0,4.0
909,1503377,Charming private room in New-York,Brooklyn,Williamsburg,40.71179,-73.96449,United States,US,Private room,244,4.0,4.0
910,1503929,Cozy bedroom near Times Square,Manhattan,Hell's Kitchen,40.76186,-73.99165,United States,US,Private room,759,2.0,3.0
911,1504481,Artist's Flat in Historic Building #10263,Brooklyn,Williamsburg,40.71417,-73.95917,United States,US,Entire home/apt,865,30.0,3.0
912,1505034,Queen size sofa bed in Harlem,Manhattan,Harlem,40.82772,-73.93877,United States,US,Private room,1070,1.0,2.0
913,1505586,Bklyn 6 Beds 1 Bathroom Rental 2,Brooklyn,East Flatbush,40.63602,-73.94607,United States,US,Entire home/apt,171,3.0,4.0
914,1506138,Bklyn 4 Beds 1 Bathroom Rental 3,Brooklyn,East Flatbush,40.63759,-73.9459,United States,US,Entire home/apt,964,3.0,2.0
915,1506691,4 Beds 2 Bathrooms Rental 1,Brooklyn,East Flatbush,40.63611,-73.94637,United States,US,Entire home/apt,900,3.0,1.0
916,1507243,Stylish & Quiet NYC Retreat!,Manhattan,Harlem,40.803,-73.95278,United States,US,Private room,890,3.0,3.0
917,1507795,"Bright, new luxury apartment in doorman building",Manhattan,Upper West Side,40.79526,-73.9655,United States,US,Entire home/apt,1075,1.0,3.0
923,1511109,TIMES SQUARE HOUSE!,Manhattan,Hell's Kitchen,40.75782,-73.99349,United States,US,Private room,481,5.0,4.0
924,1511661,Beautiful Room in a Beautiful New NYC Apartment,Manhattan,Harlem,40.83177,-73.95,United States,US,Private room,983,1.0,5.0
925,1512214,Best West Village/Meatpacking Space,Manhattan,West Village,40.73104,-74.00879,United States,US,Private room,759,1.0,3.0
927,1513318,"Heavy Sun, Quiet, Arty 1 Bedroom",Brooklyn,Sunset Park,40.64372,-74.02066,United States,US,Entire home/apt,1167,18.0,1.0
928,1513870,Cosy apartment in West Village,Manhattan,Greenwich Village,40.72886,-74.00013,United States,US,Private room,166,3.0,2.0
929,1514423,Spacious Lower East Side Apt in NYC,Manhattan,Lower East Side,40.71868,-73.99017,United States,US,Entire home/apt,461,1.0,1.0
930,1514975,ARTY 2 BED EAST VILLAGE GEM,Manhattan,East Village,40.72143,-73.98117,United States,US,Entire home/apt,944,3.0,1.0
931,1515527,Williamsburg Loft: Amazing Sublet,Brooklyn,Williamsburg,40.71682,-73.96369,United States,US,Private room,461,5.0,1.0
932,1516080,Artist 2BR in Park Slope w/backyard,Brooklyn,Park Slope,40.67725,-73.9821,United States,US,Entire home/apt,460,30.0,2.0
933,1516632,Spacious 2BR near Botanic Garden,Brooklyn,Crown Heights,40.66888,-73.95292,United States,US,Entire home/apt,1094,14.0,1.0
934,1517184,Gorgeous brownstone next to park!,Brooklyn,Park Slope,40.67188,-73.97533,United States,US,Entire home/apt,664,5.0,1.0
935,1517737,Exquisite Spacious Studio in Midtown,Manhattan,Chelsea,40.74964,-73.99158,United States,US,Entire home/apt,383,4.0,2.0
936,1518289,COMFORTABLE LARGE ROOM,Brooklyn,Prospect-Lefferts Gardens,40.65846,-73.95057,United States,US,Private room,370,5.0,3.0
937,1518841,Cute Private room in Upper East Side #14,Manhattan,Upper East Side,40.78164,-73.94717,United States,US,Private room,741,3.0,4.0
938,1519393,Lower East Side 1bedroom apt in NYC,Manhattan,Chinatown,40.71515,-73.99029,United States,US,Entire home/apt,861,3.0,3.0
939,1519946,Large Beautiful East Village 1-Bdrm,Manhattan,East Village,40.72986,-73.97913,United States,US,Entire home/apt,170,6.0,2.0
940,1520498,Big room near Prospect Park! NY!,Brooklyn,Prospect-Lefferts Gardens,40.66039,-73.95937,United States,US,Private room,752,7.0,2.0
941,1521050,It's so easy to get to EVERYthing!,Brooklyn,Crown Heights,40.66898,-73.9571,United States,US,Entire home/apt,524,3.0,3.0
942,1521603,Manhattan -  Best Location in Midtown,Manhattan,Midtown,40.75407,-73.96713,United States,US,Entire home/apt,966,7.0,2.0
943,1522155,Sunny private room right off L train,Brooklyn,Williamsburg,40.70712,-73.94013,United States,US,Private room,125,4.0,4.0
944,1522707,Beautiful Room in Manhattan Loft,Manhattan,Midtown,40.74553,-73.98943,United States,US,Private room,613,3.0,4.0
945,1523260,"Luxury, Adorable Studio Apartment",Manhattan,Upper East Side,40.77584,-73.9502,United States,US,Shared room,644,30.0,4.0
946,1523812,HOME AWAY FROM HOME,Manhattan,Harlem,40.79967,-73.95156,United States,US,Private room,848,2.0,5.0
947,1524364,Beautiful 3 bedroom in Manhattan,Manhattan,Upper West Side,40.80142,-73.96931,United States,US,Private room,382,7.0,3.0
948,1524916,Den of Zen at The Denizen Bushwick,Brooklyn,Williamsburg,40.70507,-73.9353,United States,US,Private room,593,3.0,1.0
949,1525469,Sunny large private room in Park Slope,Brooklyn,Park Slope,40.67962,-73.97655,United States,US,Private room,392,2.0,1.0
950,1526021,Eastern Parkway Brooklyn 1BR Flat,Brooklyn,Crown Heights,40.66847,-73.94875,United States,US,Entire home/apt,984,5.0,3.0
951,1526573,1400sf Manhattan View Artistic Loft,Brooklyn,Greenpoint,40.7376,-73.95678,United States,US,Private room,1138,5.0,5.0
952,1527126,"ingefära hus! Private room Williamsburg, Brooklyn",Brooklyn,Williamsburg,40.71148,-73.95573,United States,US,Private room,611,2.0,4.0
953,1527678,Private MasterBR w/ View of Museum,Brooklyn,Prospect Heights,40.67425,-73.96514,United States,US,Private room,372,3.0,1.0
954,1528230,LUXURY 2BD/2BTH - HUGE PATIO,Manhattan,East Village,40.72899,-73.97792,United States,US,Entire home/apt,675,30.0,5.0
955,1528783,"Comfy Brooklyn 2BD, W/ Backyard",Brooklyn,Greenpoint,40.72488,-73.94013,United States,US,Entire home/apt,112,2.0,1.0
956,1529335,Authentic designer loft/roof deck best Williamsbrg,Brooklyn,Williamsburg,40.72212,-73.95696,United States,US,Private room,1100,3.0,1.0
957,1529887,Sunny Retreat with Roof Garden,Brooklyn,Bedford-Stuyvesant,40.68534,-73.93433,United States,US,Entire home/apt,296,5.0,2.0
958,1530439,Enjoy Staten Island Hospitality,Staten Island,Graniteville,40.62109,-74.16534,United States,US,Private room,1178,3.0,1.0
959,1530992,Great apt on the UWS - A RARE FIND!,Manhattan,Upper West Side,40.78161,-73.97898,United States,US,Entire home/apt,50,3.0,3.0
960,1531544,Cozy 2 BD in Midtown West,Manhattan,Hell's Kitchen,40.75643,-73.99046,United States,US,Entire home/apt,59,7.0,1.0
961,1532096,Park Slope Sunny Studio,Brooklyn,Park Slope,40.67407,-73.98111,United States,US,Entire home/apt,400,4.0,5.0
962,1532649,Luxury L-Shape Studio + 3 cats,Brooklyn,Sheepshead Bay,40.59721,-73.95149,United States,US,Entire home/apt,1187,30.0,2.0
963,1533201,A cozy Red Room with private bathroom,Manhattan,Harlem,40.80491,-73.94866,United States,US,Private room,846,3.0,3.0
964,1533753,Cozy room with private bathroom & outside garden,Manhattan,Harlem,40.80334,-73.94805,United States,US,Private room,1143,3.0,4.0
965,1534306,"Beautiful 1 bdrm, Inwood Manhattan",Manhattan,Inwood,40.87039,-73.91611,United States,US,Private room,734,1.0,1.0
966,1534858,Beautiful Loft/10 min to Manhattan!,Brooklyn,Williamsburg,40.704,-73.93285,United States,US,Private room,827,5.0,4.0
967,1535410,New York City- Riverdale Modern two bedrooms unit,Bronx,Spuyten Duyvil,40.87991,-73.91673,United States,US,Entire home/apt,344,2.0,1.0
968,1535962,A PLACE TO STAY CLOSE TO MANHATTAN,Staten Island,Stapleton,40.62766,-74.07988,United States,US,Private room,682,2.0,4.0
969,1536515,Great room priv/bathrm Eastside location 70's ST,Manhattan,Upper East Side,40.7685,-73.96034,United States,US,Private room,996,7.0,3.0
970,1537067,Midtown NYC - 1 Bedroom Apartment,Manhattan,Midtown,40.76082,-73.97548,United States,US,Entire home/apt,647,3.0,5.0
971,1537619,Cozy Room in Sunny Apartment (Long/Short Term),Manhattan,Kips Bay,40.74238,-73.98122,United States,US,Private room,71,240.0,2.0
972,1538172,THERE'S NO PLACE LIKE HOME.........,Manhattan,Harlem,40.80151,-73.9522,United States,US,Entire home/apt,677,2.0,5.0
973,1538724,Cozy home in vibrant Manhattan,Manhattan,Washington Heights,40.83434,-73.94027,United States,US,Private room,919,3.0,3.0
974,1539276,LOCATION LOCATION LOCATION Sara's,Manhattan,Gramercy,40.73677,-73.98084,United States,US,Entire home/apt,362,30.0,2.0
975,1539829,Quaint & Quiet in Queens,Queens,Briarwood,40.71151,-73.81561,United States,US,Private room,687,1.0,4.0
976,1540381,Single Room,Queens,Ozone Park,40.68581,-73.84642,United States,US,Shared room,712,1.0,2.0
977,1540933,Charming brownstone apartment,Brooklyn,Columbia St,40.68636,-74.00345,United States,US,Entire home/apt,498,2.0,4.0
978,1541485,Williamsburg near soho .support artist living,Brooklyn,Williamsburg,40.70994,-73.96573,United States,US,Private room,383,15.0,5.0
979,1542038,Your Times Square Sanctuary,Manhattan,Hell's Kitchen,40.76013,-73.99007,United States,US,Private room,1148,2.0,1.0
980,1542590,Designer studio in Luxury Building,Manhattan,Financial District,40.70621,-74.01525,United States,US,Entire home/apt,504,4.0,5.0
981,1543142,Private cozy bedroom in Nolita,Manhattan,Nolita,40.72172,-73.99689,United States,US,Private room,826,5.0,5.0
982,1543695,ArtistLoft-MccarenPark-Williamsburg,Brooklyn,Greenpoint,40.72049,-73.95221,United States,US,Private room,418,2.0,4.0
983,1544247,"Beautiful Bedrooms in Briarwood, NY",Queens,Briarwood,40.71068,-73.81577,United States,US,Private room,724,1.0,3.0
984,1544799,Flatiron-Designer's loft,Manhattan,Flatiron District,40.74125,-73.98862,United States,US,Entire home/apt,114,7.0,4.0
985,1545352,Stylish Designer Studio with Piano,Manhattan,Harlem,40.83091,-73.94223,United States,US,Entire home/apt,913,5.0,5.0
987,1546456,STUNNING E Vill Penthouse,Manhattan,East Village,40.72634,-73.98267,United States,US,Entire home/apt,700,3.0,2.0
988,1547008,New York Host who knows The Most,Manhattan,Harlem,40.82703,-73.94311,United States,US,Private room,925,3.0,3.0
989,1547561,One Block From Central Park!,Manhattan,Upper East Side,40.78521,-73.95489,United States,US,Entire home/apt,524,7.0,4.0
990,1548113,"PARK SLOPE: SWEET, LARGE 2BR DUPLEX",Brooklyn,South Slope,40.66106,-73.98316,United States,US,Entire home/apt,171,3.0,4.0
991,1548665,Light Superhosted Chill LES Apt,Manhattan,Lower East Side,40.72123,-73.98996,United States,US,Private room,290,10.0,4.0
992,1549218,Big Beautiful Railroad in Brooklyn,Brooklyn,Bushwick,40.70339,-73.92945,United States,US,Entire home/apt,940,30.0,4.0
993,1549770,"Bright Brooklyn Flat w/Park Views, 30 day minimum",Brooklyn,Prospect-Lefferts Gardens,40.66009,-73.96237,United States,US,Entire home/apt,372,30.0,1.0
994,1550322,"ECO-APT, free YOGA, 2 new bedrooms. Best location!",Brooklyn,Carroll Gardens,40.67939,-73.99398,United States,US,Entire home/apt,1087,30.0,2.0
995,1550875,"Sunny UES 1.5 Bedroom, Sleeps 6",Manhattan,Upper East Side,40.76494,-73.95804,United States,US,Entire home/apt,461,4.0,4.0
996,1551427,Stay with a Jazz Singer in Harlem!,Manhattan,Harlem,40.80192,-73.95827,United States,US,Private room,993,1.0,3.0
997,1551979,Large Private Room Near Central Park & Mount Sinai,Manhattan,East Harlem,40.79314,-73.94853,United States,US,Private room,186,3.0,5.0
998,1552531,Luxury room in Manhattan Duplex Apt,Manhattan,Midtown,40.7453,-73.99056,United States,US,Private room,641,3.0,3.0
1002,1554741,LUXE Privé L.I.C. Apt & Garden,Queens,Long Island City,40.75453,-73.93377,United States,US,Entire home/apt,145,2.0,4.0
1003,1555293,"Magazine SOHO Studio Loft. 
Read our reviews!",Manhattan,SoHo,40.72057,-73.99976,United States,US,Entire home/apt,1163,3.0,1.0
1004,1555845,Nolita apt. with private garden,Manhattan,Nolita,40.7234,-73.99439,United States,US,Entire home/apt,96,28.0,2.0
1005,1556398,Family friendly Williamsburg Apt for Vacation!,Brooklyn,Williamsburg,40.71121,-73.94669,United States,US,Entire home/apt,855,3.0,3.0
1006,1556950,BROWNSTONE TWO IN BROOKLYN in NYC,Brooklyn,Bushwick,40.68979,-73.91661,United States,US,Private room,51,3.0,3.0
1007,1557502,Charming West Village One Bedroom,Manhattan,Greenwich Village,40.73448,-73.99797,United States,US,Entire home/apt,165,5.0,2.0
1008,1558054,Brooklyn Brownstone full floor/garden ProspectPark,Brooklyn,Prospect-Lefferts Gardens,40.65937,-73.95906,United States,US,Entire home/apt,175,2.0,2.0
1009,1558607,"Family friendly,  steps to subway, large garden :)",Brooklyn,Boerum Hill,40.68599,-73.98826,United States,US,Entire home/apt,544,29.0,2.0
1010,1559159,Private Sunny Room Near Central Park & Mount Sinai,Manhattan,East Harlem,40.79477,-73.95046,United States,US,Private room,641,3.0,2.0
1011,1559711,"1 bdr apt, sunny & artsy, 4 min walk to the beach",Brooklyn,Brighton Beach,40.5781,-73.95455,United States,US,Entire home/apt,367,2.0,1.0
1012,1560264,"""Simple Perfect Soho""",Manhattan,Nolita,40.72278,-73.9967,United States,US,Entire home/apt,371,2.0,5.0
1013,1560816,Beautiful Room + Private Balcony,Brooklyn,Williamsburg,40.71472,-73.96225,United States,US,Private room,242,6.0,4.0
1014,1561368,"3 BR apartment Crown Heights, BKLYN",Brooklyn,Crown Heights,40.66924,-73.94406,United States,US,Entire home/apt,1163,5.0,1.0
1015,1561921,Brownstone Sunny & Spacious top fl,Brooklyn,Crown Heights,40.67259,-73.95489,United States,US,Entire home/apt,748,30.0,1.0
1016,1562473,"Morocco in Brooklyn with the flyest loft, Amazing!",Brooklyn,Bedford-Stuyvesant,40.69321,-73.9442,United States,US,Entire home/apt,373,5.0,4.0
1017,1563025,Perfect NYC/Williamsburg Location,Brooklyn,Williamsburg,40.71348,-73.94447,United States,US,Private room,960,3.0,1.0
1018,1563577,Midtown East Sutton Area Entire Apt,Manhattan,Midtown,40.75816,-73.96457,United States,US,Entire home/apt,435,2.0,1.0
1019,1564130,Finest Gateway to historic Financial District,Manhattan,Financial District,40.70537,-74.00992,United States,US,Entire home/apt,70,1.0,5.0
1020,1564682,Industrial Brooklyn Loft with Tree-Lined Windows,Brooklyn,Clinton Hill,40.68722,-73.96289,United States,US,Entire home/apt,1195,1.0,5.0
1021,1565234,Cute east village apartment.,Manhattan,East Village,40.73111,-73.98528,United States,US,Entire home/apt,208,14.0,2.0
1022,1565787,"All Charm: Lush Garden, Huge Kitchen + Quiet",Brooklyn,Greenpoint,40.72212,-73.94389,United States,US,Entire home/apt,1126,6.0,4.0
1023,1566339,Bright and Quiet 2 BR in Park Slope,Brooklyn,Park Slope,40.66626,-73.97933,United States,US,Entire home/apt,185,1.0,5.0
1024,1566891,"Cozy, bright 1BR avail. in East Village apartment",Manhattan,East Village,40.72978,-73.9793,United States,US,Private room,798,3.0,1.0
1025,1567444,Stylish Loft w/Lovely Backyard,Brooklyn,Bedford-Stuyvesant,40.68838,-73.94193,United States,US,Entire home/apt,845,2.0,1.0
1026,1567996,Great Apt IDEAL Location 900 SF,Manhattan,Lower East Side,40.71804,-73.98565,United States,US,Entire home/apt,88,7.0,5.0
1027,1568548,Garden - Brownstone Experience,Brooklyn,Bedford-Stuyvesant,40.68559,-73.93896,United States,US,Entire home/apt,344,15.0,4.0
1028,1569100,Gorgeous ! Best Location in NYC !,Manhattan,Upper West Side,40.77995,-73.98342,United States,US,Private room,764,30.0,2.0
1029,1569653,luxury 1 BedRoom Apt Hells Kitchen,Manhattan,Hell's Kitchen,40.7559,-73.99469,United States,US,Entire home/apt,737,30.0,2.0
1030,1570205,Luxury room + En-suite bath in Times Sq/Midtown W,Manhattan,Hell's Kitchen,40.76291,-73.99202,United States,US,Private room,382,1.0,2.0
1031,1570757,"Chic, Spacious Loft + Backyard",Manhattan,Midtown,40.74406,-73.98273,United States,US,Entire home/apt,441,2.0,4.0
1032,1571310,Sunny and Zen W. Village Studio of Your Own,Manhattan,West Village,40.73041,-74.00498,United States,US,Entire home/apt,324,7.0,3.0
1033,1571862,2BR Lux Prospect Heights,Brooklyn,Crown Heights,40.6764,-73.96218,United States,US,Entire home/apt,76,28.0,1.0
1034,1572414,"An airy, comfy, bookish refuge!",Brooklyn,Vinegar Hill,40.70279,-73.98284,United States,US,Entire home/apt,1024,4.0,5.0
1035,1572967,Bright & Vibrant- The BK experience,Brooklyn,Crown Heights,40.67436,-73.956,United States,US,Private room,951,2.0,4.0
1036,1573519,"Very clean, quiet bedroom available",Manhattan,Washington Heights,40.83559,-73.94095,United States,US,Private room,489,2.0,4.0
1037,1574071,Lux One-bed Central Park View UWS,Manhattan,Upper West Side,40.79234,-73.96482,United States,US,Entire home/apt,711,1.0,5.0
1038,1574623,Elegant Uptown Historic District Garden Apartment,Manhattan,Washington Heights,40.83451,-73.93885,United States,US,Entire home/apt,1118,3.0,3.0
1039,1575176,Only 5 Min. to Manhattan!,Queens,Long Island City,40.74826,-73.94633,United States,US,Private room,963,180.0,1.0
1040,1575728,Lovely 1 bdrm in Prospect Heights!,Brooklyn,Prospect Heights,40.67763,-73.97185,United States,US,Entire home/apt,690,4.0,5.0
1041,1576280,Spacious & Sunny in Prime Brooklyn,Brooklyn,Clinton Hill,40.68472,-73.96691,United States,US,Entire home/apt,1013,20.0,3.0
1042,1576833,1 Bedroom Apt - Close to JFK & City,Brooklyn,East New York,40.65408,-73.87883,United States,US,Entire home/apt,795,4.0,3.0
1043,1577385,"1 br. studio duplex,  Park Slope/Gowanus, Brooklyn",Brooklyn,Gowanus,40.67302,-73.98756,United States,US,Entire home/apt,148,3.0,1.0
1044,1577937,A REAL New Yorkers  Wall St,Manhattan,Financial District,40.70633,-74.00974,United States,US,Entire home/apt,671,4.0,3.0
1045,1578490,ROOM AVAILABLE IN NEW YORK CITY,Manhattan,Upper East Side,40.77548,-73.95183,United States,US,Private room,198,5.0,2.0
1046,1579042,Sunny West Village Dream,Manhattan,West Village,40.73775,-74.00344,United States,US,Entire home/apt,467,88.0,3.0
1047,1579594,SUNNY ZEN  FULL SERVICE HUGE STUDIO,Manhattan,Financial District,40.70917,-74.0146,United States,US,Entire home/apt,63,6.0,2.0
1048,1580146,Beautiful corner prewar apartment in Williamsburg,Brooklyn,Williamsburg,40.7108,-73.96226,United States,US,Entire home/apt,321,3.0,1.0
1049,1580699,"Tranquil, Artsy, Sunny Bedroom",Manhattan,East Village,40.72507,-73.98861,United States,US,Private room,1101,2.0,4.0
1050,1581251,Room in Harlem,Manhattan,Harlem,40.82726,-73.9444,United States,US,Private room,88,1.0,2.0
1051,1581803,Room for the Summer,Manhattan,Harlem,40.82669,-73.94281,United States,US,Private room,56,2.0,3.0
1052,1582356,Fantastic 2BR in Brooklyn's Best Area,Brooklyn,Park Slope,40.67078,-73.98815,United States,US,Entire home/apt,242,115.0,5.0
1053,1582908,GREAT 1BR/2BA TERRACE & W/D! in EV!,Manhattan,East Village,40.728,-73.97903,United States,US,Entire home/apt,826,5.0,4.0
