business_status,formatted_address,lat,lng,name,region,photos,ratings,user_ratings_total,types,country,price
OPERATIONAL,"347 2nd Ave S (at 20th St. E), Saskatoon SK S7K 1L2",52.125493,-106.665837,Scotiabank Theatres,SK,https://fastly.4sqi.net/img/general/original/14026172_1YwK2vhWbcD1q_u-8HrRte8SMT-erU0crN_1Nd1Ccts.jpg,1.8,126,Movie Theater,saskatchewan,100
OPERATIONAL,"1903 Forest Dr (Attridge Drive), Saskatoon SK S7S 1G9",52.157218,-106.583452,Saskatoon Forestry Farm Park & Zoo,SK,https://fastly.4sqi.net/img/general/original/48487_blC8sHm_cGKwK9ELC1qmJRyI-3jwaGTlKhyYRDPSbJI.jpg,1.1,384,Zoo,saskatchewan,1290
OPERATIONAL,"601 Spadina Cres E, Saskatoon SK S7K 3G8",52.126252,-106.659361,Delta Bessborough,SK,https://fastly.4sqi.net/img/general/original/31887071_k2lxw8Ws-rPjKDpIGpKrpiu6i83sZ_uYVjOogODn45c.jpg,4.1,239,Hotel,saskatchewan,510
OPERATIONAL,Regina SK S4P 3S7,50.432537,-104.606818,Wascana Centre,SK,https://fastly.4sqi.net/img/general/original/586098_L0WD_htbyLxPYJRkkisS_pC_DXaghQZwdz2OcBU4aww.jpg,4.7,145,Urban Park,saskatchewan,850
OPERATIONAL,"110 Gateway Blvd, Saskatoon SK S7L 1S4",52.161177,-106.686074,Hampton Inn & Suites by Hilton Saskatoon Airport,SK,https://fastly.4sqi.net/img/general/original/2889832_M6jvJoouzika97-HXlDlHTjVpuBqZXlWG3E6R3IYLTk.jpg,1.3,365,Lodging,saskatchewan,210
OPERATIONAL,"4327 Albert St, Regina SK S4S 3R6",50.409878,-104.617062,Co-op Gas Bar,SK,https://ticketshop.barcelona/images/sights-barcelona.jpg,3.5,360,Fuel Station,saskatchewan,510
OPERATIONAL,"420 McCarthy Blvd N (9th Ave N), Regina SK S4R 7M2",50.48334,-104.666867,Galaxy Cinemas,SK,https://fastly.4sqi.net/img/general/original/GQIRVREIWMESEV0FYNKXGHPWFRG1B21E4L5ZGDEWIRQ3GBRT.jpg,2.5,374,Movie Theater,saskatchewan,1400
OPERATIONAL,"2125 Victoria Ave, Regina SK S4P 0S3",50.446918,-104.611472,"The Hotel Saskatchewan, Autograph Collection",SK,https://fastly.4sqi.net/img/general/original/50323273_z1wtm12L-_vrsUNm8mpqpbRwv8inpr0pjNOF3qKRcLs.jpg,2.7,490,Hotel,saskatchewan,1350
OPERATIONAL,"1975 Broad St (Victoria Ave), Regina SK S4P 1Y2",50.447855,-104.605859,DoubleTree by Hilton Hotel & Conference Centre Regina,SK,https://fastly.4sqi.net/img/general/original/87388367_mHpFV_HP3gMvgtGF7_6WEdhQZAvaYNHgw7i1Oyh9nls.jpg,1.8,275,Lodging,saskatchewan,1470
OPERATIONAL,"243 21 St St E (at 3rd Ave), Saskatoon SK S7K 0B7",52.126844,-106.663573,Winston's English Pub & Grill,SK,https://fastly.4sqi.net/img/general/original/40173475_EzQlocGTiM9IZQBqKaf9gqR2pSnRHCPoXQ-e-sajsfY.jpg,3.5,102,Night Club,saskatchewan,300
OPERATIONAL,"333 Aerogreen Cres, Saskatoon SK S7L 1S4",52.163605,-106.686297,Courtyard by Marriott Saskatoon Airport,SK,https://fastly.4sqi.net/img/general/original/87388367_AryUO6eCrY4jbJ6R_9qqlC8k1g3ghIKrGhrFZKGJIeE.jpg,2.4,387,Lodging,saskatchewan,1230
OPERATIONAL,"2002 Airport Dr (at Circle Dr), Saskatoon SK S7L 6M4",52.156054,-106.682697,Saskatoon Inn & Conference Centre,SK,https://fastly.4sqi.net/img/general/original/6D7dUH6_UrVfLEcgUzg4bVdusOX22BgbdW77ZmXlF5E.jpg,2.3,304,Hotel,saskatchewan,250
OPERATIONAL,"3850 Idylwyld Dr N, Saskatoon SK S7P 0A1",52.195685,-106.668607,Flying J Travel Plaza,SK,https://ticketshop.barcelona/images/sights-barcelona.jpg,4.1,445,Convenience Store,saskatchewan,1930
OPERATIONAL,"3510 8th St E (at Acadia Dr.), Saskatoon SK S7H 0W6",52.113025,-106.597923,Cineplex Cinemas,SK,https://fastly.4sqi.net/img/general/original/25085640_O7e4fR1RYJZ_IB0Cg0mluTlRJZUy0p9ku3RhV-BmfPE.jpg,4.5,489,Movie Theater,saskatchewan,1920
OPERATIONAL,"5907 Dewdney Ave, Regina SK S4T 0P4",50.454503,-104.666368,RCMP Heritage Centre,SK,https://fastly.4sqi.net/img/general/original/36499228_ZVJxsE8qVMppv3LrMaF7FfIQ_ybuFe951oHfT5tQpP4.jpg,2.5,499,History Museum,saskatchewan,1380
OPERATIONAL,"980 Spadina Cres E, Saskatoon SK",52.134077,-106.651621,Kinsmen Park,SK,https://fastly.4sqi.net/img/general/original/222729681_wLV3B_xBSSmY26mbNn10wwq4Y8CJXLGDEw5Zfztz4xA.jpg,3.2,464,Park,saskatchewan,1270
OPERATIONAL,"4705 Gordon Rd (at Grasslands), Regina SK S4P 3X5",50.404765,-104.649089,Co-op Gas Bar,SK,https://fastly.4sqi.net/img/general/original/14318988_dcpHYXfnt8S7fHPH3Fr5Z3hF6M7zxEizpSh6d-L6FM0.jpg,2.5,324,Fuel Station,saskatchewan,410
OPERATIONAL,"63 High St W, Moose Jaw SK S6H 1S4",50.391409,-105.532732,Bobby's Place,SK,https://fastly.4sqi.net/img/general/original/92260086_LdSeLlBhZPLenDjMALV3_eR5Yr3dxRxlL_roaRnJIIY.jpg,3.9,316,Night Club,saskatchewan,480
OPERATIONAL,"115 Marquis Dr W, Saskatoon SK S7R 1C7",52.193499,-106.672966,Costco Gas,SK,https://fastly.4sqi.net/img/general/original/24037462_YeedmbZKm72s5A8ae9cANIi-tsuoV0KIqJoyxDJjLn4.jpg,3.8,389,Fuel Station,saskatchewan,340
OPERATIONAL,"1700 Broad St (Saskatchewan Dr), Regina SK S4P 1X4",50.451676,-104.606782,Wingate by Wyndham Regina,SK,https://fastly.4sqi.net/img/general/original/229_eg7MdM7xfMYGdjAASitAlbMB7yzqAVID__u2n_l4wj8.jpg,4.9,134,Hotel,saskatchewan,1300
OPERATIONAL,"1700 Elphinstone St (btwn 9 and 10), Regina SK S4P 2Z6",50.450279,-104.637651,Brandt Centre,SK,https://fastly.4sqi.net/img/general/original/10312117_LHXgkpGd8-HwRfVe9PDGK6znt2AAJYWuV91jt6O2wXw.jpg,2.7,311,Music Venue,saskatchewan,520
OPERATIONAL,"1919 Fleet St (at Victoria Ave.), Regina SK S4N 6P5",50.448393,-104.548531,Petro Canada Neighbours,SK,https://fastly.4sqi.net/img/general/original/35603698_2fzWwGTkMDpY_hcprHZYIjIE_x1QRYNDtX6ZZ-Bnnyw.jpg,2.9,392,Fuel Station,saskatchewan,270
OPERATIONAL,"1502 8th St E, Saskatoon SK S7H 0T3",52.114278,-106.634681,Petro-Canada,SK,https://fastly.4sqi.net/img/general/original/wY3V9UAzk5keslvhwwz30bk58xmHb_TO0w_9XSClyNg.jpg,3.4,179,Fuel Station,saskatchewan,860
OPERATIONAL,"1880 Saskatchewan Dr (at Broad St), Regina SK S4P 0B2",50.452876,-104.608067,Casino Regina,SK,https://fastly.4sqi.net/img/general/original/58854689_QaobuQCLxvVWdbUwL2Uz7o8Lkg97N4B7aGgKaO_vh5A.jpg,1.1,150,Casino,saskatchewan,1820
OPERATIONAL,"4010 Albert St (Parliament), Regina SK S4S 3R5",50.415105,-104.618819,Esso,SK,https://ticketshop.barcelona/images/sights-barcelona.jpg,4.9,176,Fuel Station,saskatchewan,1190
OPERATIONAL,"275 Albert St N, Regina SK S4R 3C2",50.480476,-104.617343,Shell,SK,https://fastly.4sqi.net/img/general/original/36494018__X9iSJuPMa8gLhm5iGkx_nux3NKtAI5141-HGwjvFyY.jpg,4.8,413,Fuel Station,saskatchewan,870
OPERATIONAL,"105 11 Ave W (Esso), Kindersley SK S0L 1S0",51.474477,-109.161793,Petro-Canada,SK,https://fastly.4sqi.net/img/general/original/FKD0PAKPYFPAURJJY3PEUAVOBKEGO0LXCX35A3ZIDIQ5USEC.jpg,4.1,369,Fuel Station,saskatchewan,720
OPERATIONAL,"2445 Victoria Ave E, Regina SK S4N 7M3",50.446519,-104.548159,Shell,SK,https://ticketshop.barcelona/images/sights-barcelona.jpg,1.6,447,Fuel Station,saskatchewan,1690
OPERATIONAL,"93 Campus Dr (2nd Flr Memorial Union Building), Saskatoon SK S7N 5B2",52.129768,-106.635007,Louis' Pub,SK,https://fastly.4sqi.net/img/general/original/121118362_FGehxNUrQTob2EXKTQfrENpDMtX93VbGjrAJbeCFPuw.jpg,3.9,433,Music Venue,saskatchewan,320
OPERATIONAL,Melfort SK,52.857981,-104.589958,Melfort Golf Course,SK,https://ticketshop.barcelona/images/sights-barcelona.jpg,2.5,440,Landmarks and Outdoors,saskatchewan,210
OPERATIONAL,"509 1 St St S, Waldheim SK S0K 4R0",52.620938,-106.661797,Salem Church,SK,https://ticketshop.barcelona/images/sights-barcelona.jpg,3.5,214,Church,saskatchewan,800
OPERATIONAL,"2491 99th St, North Battleford SK S9A 3W8",52.794454,-108.301872,Porta Bella Restaurant,SK,https://ticketshop.barcelona/images/sights-barcelona.jpg,3.2,258,Night Club,saskatchewan,1820
OPERATIONAL,"502 Webster St, Saskatoon SK S7N 3P9",52.145971,-106.585401,Forest Grove Community Church,SK,https://fastly.4sqi.net/img/general/original/210407_oJ7n23GITTJDeazxB1PAJINqRDYB8jsBAk3L2vJaB7Y.jpg,2.6,125,Church,saskatchewan,1110
OPERATIONAL,"225 Kenderdine Rd, Saskatoon SK S7N 3V2",52.140674,-106.574076,DrJohn G Egnatoff School,SK,https://fastly.4sqi.net/img/general/original/iRM1YYtnTBf7e8DB3RI6A4OuTSPzIIgERrlJwU9ks48.jpg,4.3,55,Elementary School,saskatchewan,150
OPERATIONAL,"303 Owen Manor, Saskatoon SK S7V 0P1",52.13261,-106.557046,The Stoked Centre,SK,https://ticketshop.barcelona/images/sights-barcelona.jpg,2.6,238,Arts and Entertainment,saskatchewan,1170
OPERATIONAL,Saskatoon SK,52.142169,-106.643974,Saskatoon Weir,SK,https://fastly.4sqi.net/img/general/original/32970763_ira02fL-4tJGv7Ncd-oA7vobZTnEf3olXMQ7IQbFBpo.jpg,4.2,363,Scenic Lookout,saskatchewan,1120
OPERATIONAL,"2930 McClocklin Rd, Saskatoon SK S7R 0A1",52.151834,-106.71509,Hampton Free Methodist Church,SK,https://ticketshop.barcelona/images/sights-barcelona.jpg,1.9,96,Church,saskatchewan,640
OPERATIONAL,Saskatoon SK S7N 0X1,52.135093,-106.637191,Education Building,SK,https://fastly.4sqi.net/img/general/original/3484099_rHMy-kIuRBBgp3Trt26gHO5KlkDupH-TsFrIctDB4oo.jpg,4.9,286,College Academic Building,saskatchewan,1410
OPERATIONAL,"1437 College Dr, Saskatoon SK S7N 0W6",52.129853,-106.63318,University of Saskatchewan,SK,https://fastly.4sqi.net/img/general/original/5939919_EanIlq2XPrNmSk69pRqkVmr6ZW4bPa3J-5U5EfKEHXM.jpg,3.8,218,College and University,saskatchewan,240
OPERATIONAL,"107 Wiggins Rd (at campus drive), Saskatoon SK S7N 5E5",52.130581,-106.640048,Health Sciences Building,SK,https://fastly.4sqi.net/img/general/original/71648540_LbQ7nFOt2DXH61c7Bzb-QPsXL050aLpx9q_EqYO7IOc.jpg,4.2,68,Medical School,saskatchewan,900
OPERATIONAL,"1020 College Dr, Saskatoon SK S7N 0W1",52.128678,-106.645138,The Inn on College,SK,https://ticketshop.barcelona/images/sights-barcelona.jpg,2.3,350,Bed and Breakfast,saskatchewan,260
OPERATIONAL,"514 23rd St E, Saskatoon SK S7K 0J8",52.129423,-106.656667,Palisades,SK,https://ticketshop.barcelona/images/sights-barcelona.jpg,3.7,264,Real Estate Agency,saskatchewan,960
OPERATIONAL,"221 Cumberland Ave N, Saskatoon SK S7N 1M3",52.125645,-106.633756,The Language Centre University of Saskatchewan,SK,https://ticketshop.barcelona/images/sights-barcelona.jpg,3.6,189,College and University,saskatchewan,1400
OPERATIONAL,"35 22nd St E, Saskatoon SK S7K 0C8",52.128485,-106.667712,Tcu Place,SK,https://fastly.4sqi.net/img/general/original/84592_MSmT50u6pZxz61rXM-cwKErmtUGh0Npu_7xNRVlFuRg.jpg,4.9,359,Music Venue,saskatchewan,1980
OPERATIONAL,"405 20th St E, Saskatoon SK S7K 6X6",52.124673,-106.661802,Delta Hotels by Marriott Saskatoon Downtown,SK,https://fastly.4sqi.net/img/general/original/87388367_BC593FLY5wEzkIlgbzCzrW6KjrQA58YL0VvXY68F0WU.jpg,4.1,245,Lodging,saskatchewan,830
OPERATIONAL,"812 Preston Ave (Main Street), Saskatoon SK S7H 2V2",52.117298,-106.623303,Redeemer Lutheran Church,SK,https://ticketshop.barcelona/images/sights-barcelona.jpg,4.3,94,Church,saskatchewan,140
OPERATIONAL,"480 2 Ave S, Saskatoon SK S7K 0L3",52.123132,-106.666987,Alt Hotel Saskatoon,SK,https://fastly.4sqi.net/img/general/original/1386645219_oznCO1wf_EzwbfJ9GbXGvkIa_BujSsrDGYGXRZ7uUk8.jpg,1.5,286,Lodging,saskatchewan,1150
OPERATIONAL,"1301 8th St E, Saskatoon SK S7H 0S7",52.115181,-106.638076,Canadian Tire Gas+,SK,https://ticketshop.barcelona/images/sights-barcelona.jpg,1.1,152,Fuel Station,saskatchewan,1370
OPERATIONAL,"1905 Preston Ave (Taylor St), Saskatoon SK S7J 2E7",52.106513,-106.621315,Walter Murray Collegiate,SK,https://fastly.4sqi.net/img/general/original/55329_i5ITes4uWEcsH2P8S0iXoEPNOuDCrQdoepBMgVFjW6k.jpg,2.2,164,High School,saskatchewan,1800
OPERATIONAL,Saskatoon SK,52.104949,-106.73839,Via Rail Terminal Saskatoon,SK,https://fastly.4sqi.net/img/general/original/469188_yLdXBwE6KLfqgbyohsvwAf3y0Vqv7yPETuil0cydPu0.jpg,3.3,73,Rail Station,saskatchewan,1690
OPERATIONAL,"3164 Brackley Point Rd - Rte 15, Brackley Beach PE C1E 2N7",46.39456,-63.187503,Brackley Drive in,PE,https://fastly.4sqi.net/img/general/original/77108_ClJ1Fz2WqpaXDr2YUqWfj8fFdSNcXLiVvB1o-_yuhtw.jpg,3.7,285,Movie Theater,Prince Edward Island,800
OPERATIONAL,"132 Richmond St, Charlottetown PE C1A 1H9",46.233909,-63.126397,John Brown Richmond Street Grille,PE,https://fastly.4sqi.net/img/general/original/4855267_ESU4TBWdwx4bnRzXh52n3-nfFynPQHItkq7KisOh8h0.jpg,2.3,454,Night Club,Prince Edward Island,290
OPERATIONAL,"75 Kent St (at Pownal St.), Charlottetown PE C1A 1N1",46.234787,-63.130692,Rodd Charlottetown,PE,https://fastly.4sqi.net/img/general/original/21379994_pviNuToWlIVWO03MXsfTFvx9vX8QOxGM2MvKdAFVPdE.jpg,1.4,296,Hotel,Prince Edward Island,690
OPERATIONAL,"5039 Rte 16, Bayfield NB E4M 3Z8",46.133494,-63.788865,Cape Jourimain Nature Centre,NB,https://ticketshop.barcelona/images/sights-barcelona.jpg,2.2,330,Nature Preserve,Prince Edward Island,1690
OPERATIONAL,"455 University Ave, Charlottetown PE C1A 4N8",46.249841,-63.138794,GoodLife Fitness Charlottetown Belvedere Plaza,PE,https://ticketshop.barcelona/images/sights-barcelona.jpg,4.8,289,Gym and Studio,Prince Edward Island,1940
OPERATIONAL,"200 Capital Dr, Charlottetown PE C1E 2E8",46.263225,-63.161751,Holiday Inn Express & Suites Charlottetown,PE,https://fastly.4sqi.net/img/general/original/87388367_D_58dd-OYP7bbFXuGfBec5suQA6TBDckYy_Vh5NzXf0.jpg,1.8,480,Lodging,Prince Edward Island,760
OPERATIONAL,"473 Malpeque Rd (at Melody Ln.), Winsloe PE C1E 0J4",46.289793,-63.172241,Petro-Canada,PE,https://fastly.4sqi.net/img/general/original/464764_3Gma73PIdb757J1GnhBTetsS63FjTgudoSP7uJVr6Y4.jpg,4.5,82,Fuel Station,Prince Edward Island,1320
OPERATIONAL,"18 Queen St (Water Street), Charlottetown PE C1A 4A1",46.231695,-63.124127,Delta Hotels by Marriott Prince Edward,PE,https://fastly.4sqi.net/img/general/original/31887071_FCGpQDqlDYSxElva4quYumZMpGmPk3XCySUg7BSVezQ.jpg,3.2,205,Lodging,Prince Edward Island,1530
OPERATIONAL,"230 Euston St (at Weymouth St.), Charlottetown PE C1A 1X2",46.240316,-63.125178,Petro-Canada,PE,https://fastly.4sqi.net/img/general/original/4049559_atuqnb4y8sIfDjDwV7_iAAsRt1UeqaNpqaXlXTmeehk.jpg,4.9,379,Convenience Store,Prince Edward Island,650
OPERATIONAL,"3081 Rte 16 (at Jake Rd.), Timber River NB E4M 3A1",46.074676,-64.026909,Petro-Canada,NB,https://fastly.4sqi.net/img/general/original/35597518_tmV0svmI15Lf3IoJq_x8clEv_y0s8vjIsYPnChxE9Eo.jpg,4.8,201,Fuel Station,Prince Edward Island,1680
OPERATIONAL,"189 Harbor View Dr (Boarwalk), North Rustico PE C0A 1X0",46.457054,-63.304212,North Rustico Boardwalk,PE,https://fastly.4sqi.net/img/general/original/58186361_dv_UeR35nCuVsoP6EUo5bHpdNM96l26HvJ1t0phfUQQ.jpg,2.7,250,Other Great Outdoors,Prince Edward Island,1870
OPERATIONAL,"238 Grafton St, Charlottetown PE C1A 1L5",46.237898,-63.123243,Charlottetown Inn & Conference Centre,PE,https://fastly.4sqi.net/img/general/original/53232089_URM-X3BQs-HeuOqsNZiy8Y-_Nb1zDZQFubtif9BU7RM.jpg,4.8,325,Hotel,Prince Edward Island,660
OPERATIONAL,"250 Maple Hills Ave, Charlottetown PE C1C 1N2",46.285717,-63.131286,Charlottetown Airport,PE,https://fastly.4sqi.net/img/general/original/xFBVJ72UPlGIg3TUYloveW9M8GQO9P4WQGOEr96KAFY.jpg,1.7,420,Airport Service,Prince Edward Island,290
OPERATIONAL,Stanhope PE,46.421498,-63.103336,Stanhope Beach,PE,https://fastly.4sqi.net/img/general/original/29675251_FpEB4IPGr6gwpCas76IURxISGcKIdfAXS-cXnF46y58.jpg,4.4,73,Beach,Prince Edward Island,580
OPERATIONAL,"42 Shemogue Rd, Port Elgin NB E4M 1C5",46.052946,-64.09318,Shell,NB,https://ticketshop.barcelona/images/sights-barcelona.jpg,2.7,481,Fuel Station,Prince Edward Island,1890
OPERATIONAL,Breadalbane PE,46.444213,-63.549687,Red Sands Golf Course,PE,https://fastly.4sqi.net/img/general/original/58258547_ytw__s-9IA_qk1h0REMB7ZL16tUoryuo9ST0Hb0bkVk.jpg,2.6,193,Golf Course,Prince Edward Island,250
OPERATIONAL,"545 Malpeque Rd, Charlottetown PE C1E 1Z3",46.293378,-63.177743,Trail Side Bed & Breakfast,PE,https://fastly.4sqi.net/img/general/original/57117805_9r2zpsTRAwEjK3NsP0WnGyv-PoqQU6q5yoG2PZsJ2mI.jpg,2.3,195,Bed and Breakfast,Prince Edward Island,1780
OPERATIONAL,"361 Mount Edward Rd, Charlottetown PE C1E 2A1",46.277002,-63.144859,Centennial Practicar Charlottetown,PE,https://fastly.4sqi.net/img/general/original/87388367_xPs16_PgqHT4JrW-9_oZCGIiALn5w08q344v0lpxyRI.png,3.7,131,Rental Car Location,Prince Edward Island,190
OPERATIONAL,"2018 Rte 13, Brookvale PE C0A 1Y0",46.282512,-63.410353,Mark Arendz Provincial Ski Park at Brookvale,PE,https://ticketshop.barcelona/images/sights-barcelona.jpg,3.8,484,Resort,Prince Edward Island,160
OPERATIONAL,Charlottetown PE,46.261997,-63.172468,Upton Park,PE,https://fastly.4sqi.net/img/general/original/T_UYz_szEf7Zgv_7N49js1vert9hZN0yNBGkM1LVX6s.jpg,3.1,280,Park,Prince Edward Island,750
OPERATIONAL,"124 Capital Dr (at North River Rd.), Charlottetown PE C1E 1E7",46.264032,-63.157107,Esso,PE,https://ticketshop.barcelona/images/sights-barcelona.jpg,4.4,102,Fuel Station,Prince Edward Island,1390
OPERATIONAL,"40A Enman Cres, Charlottetown PE C1E 1E6",46.26058,-63.14949,Island Gymnastics Academy,PE,https://fastly.4sqi.net/img/general/original/29224537_i3ULUylsnm-JMIMRKxGf20wZtBqZDWhxnxxZj33Hk1I.jpg,4.6,403,Gym and Studio,Prince Edward Island,1860
OPERATIONAL,"100 Raider Rd, Charlottetown PE C1E 1K6",46.258592,-63.150384,Charlottetown Rural High School,PE,https://fastly.4sqi.net/img/general/original/2540867_WmHiBcubQp-WnfcMeNwRAQyvQm1cl16riHwIu8ty6t4.jpg,1.1,173,Primary and Secondary School,Prince Edward Island,910
OPERATIONAL,"550 University Ave, Charlottetown PE C1A 4P3",46.258624,-63.140497,Mac Lauchlan Arena,PE,https://fastly.4sqi.net/img/general/original/32936995_5oc8UuXHjlAu-6fL1lEB2vSa8gIzKCD8Dqt2EpAfQWw.jpg,2.6,280,Stadium,Prince Edward Island,860
OPERATIONAL,"550 University Ave, Charlottetown PE C1A 4P3",46.258094,-63.140265,UPEI Chi-Wan Young Sports Centre,PE,https://fastly.4sqi.net/img/general/original/29212448_NkMLhyry_tBaugXZ9BEac-9rLRRfGuZeDWFnv-szkko.jpg,2.3,56,Gym and Studio,Prince Edward Island,1470
OPERATIONAL,Charlottetown PE,46.257024,-63.140436,W.A. Murphy Student Centre,PE,https://fastly.4sqi.net/img/general/original/12259699_wnSg4pZErJKphZKgcm_lOBn0RXi-bCb8m6ZHWwiBhgE.jpg,4.2,55,Student Center,Prince Edward Island,390
OPERATIONAL,Charlottetown PE,46.25644,-63.141821,UPEI Bus Stop,PE,https://fastly.4sqi.net/img/general/original/ldWZLf-SAtnYmr-HZ8wHTHdvlMXa7mROygK80Qo4cZc.jpg,3.6,340,Bus Station,Prince Edward Island,220
OPERATIONAL,"550 University Ave (at Belvedere Ave.), Charlottetown PE C1A 4P3",46.258308,-63.140854,University of Prince Edward Island,PE,https://fastly.4sqi.net/img/general/original/29212448_vpSD9CcVMigfV1JNFnapHqQBwOyjxxysbQKMahpxuQI.jpg,3.2,198,College and University,Prince Edward Island,470
OPERATIONAL,"1 Greens View Dr (at Arterial Hwy.), Charlottetown PE C1A 6C3",46.260304,-63.109975,Belvedere Golf Club Inc,PE,https://ticketshop.barcelona/images/sights-barcelona.jpg,1.4,261,Golf Course,Prince Edward Island,390
OPERATIONAL,"161 St Peters Rd, Charlottetown PE C1A 5P7",46.261059,-63.118873,Canada Customs & Revenue,PE,https://ticketshop.barcelona/images/sights-barcelona.jpg,2.3,209,Government Building,Prince Edward Island,1810
OPERATIONAL,"60 Upper Prince St (btwn Alley St. & Gerald St.), Charlottetown PE C1A 4S3",46.240757,-63.128931,Prince Street Elementary,PE,https://ticketshop.barcelona/images/sights-barcelona.jpg,4.1,315,Elementary School,Prince Edward Island,1500
OPERATIONAL,"121 N. River Rd, Charlottetown PE C1A 3K7",46.236,-63.141242,Elmwood Heritage Inn,PE,https://fastly.4sqi.net/img/general/original/9646427_kztYl2J-q6Fk4ndRUW1ZYh09RSYdCsa96D3ernV8Vyo.jpg,4.6,111,Bed and Breakfast,Prince Edward Island,620
OPERATIONAL,Cornwall PE,46.223931,-63.227563,Terry Fox Sports Centre,PE,https://ticketshop.barcelona/images/sights-barcelona.jpg,1.1,89,Soccer Field,Prince Edward Island,470
OPERATIONAL,"331 Grafton St (at Edward St.), Charlottetown PE C1A 1L9",46.240214,-63.119799,The Glendenning,PE,https://ticketshop.barcelona/images/sights-barcelona.jpg,4.5,287,Hostel,Prince Edward Island,1140
OPERATIONAL,"323 Grafton St, Charlottetown PE C1A 1L8",46.239506,-63.121842,Holland College,PE,https://fastly.4sqi.net/img/general/original/27893370_DaAqHJnRfQNbqultUiKG8siL8rhFVvofjyvajVLrguI.jpg,3.6,486,Education,Prince Edward Island,1920
OPERATIONAL,"143 Great George St, Charlottetown PE C1A 4K7",46.235689,-63.127393,Mermaid Suites,PE,https://ticketshop.barcelona/images/sights-barcelona.jpg,3.6,384,Hotel,Prince Edward Island,730
OPERATIONAL,"95 Rochford St, Charlottetown PE",46.233392,-63.13268,Walter R. Shaw Bldg,PE,https://fastly.4sqi.net/img/general/original/1329614_xp65T-aaYwPpnKC5o5NXiQmKuwrzinvySo_boTC9YsM.jpg,1.4,260,Government Building,Prince Edward Island,1310
OPERATIONAL,"200 Richmond St (btwn Great George St. & Prince St.), Charlottetown PE C1A 1J2",46.234981,-63.124669,Murphy's Community Centre,PE,https://ticketshop.barcelona/images/sights-barcelona.jpg,4.7,440,Bowling Alley,Prince Edward Island,700
OPERATIONAL,"2 Kent St, Charlottetown PE C1A 1M6",46.231788,-63.13335,Beaconsfield Historic House,PE,https://fastly.4sqi.net/img/general/original/6810701_Z68Gj5Ie1PBDrBThlAEXNfJb_gSMHVRyVxha3CJsm3I.jpg,2.8,392,History Museum,Prince Edward Island,960
OPERATIONAL,Charlottetown PE,46.238246,-63.107506,Hillsborough Bridge,PE,https://fastly.4sqi.net/img/general/original/TOH1BK4VCVKEMBVKBHJSRAR1RNQMXMIWR2URFC3P3HN4VXSN.jpg,4.4,267,Bridge,Prince Edward Island,290
OPERATIONAL,"4 Sydney St, Charlottetown PE C1A 1E9",46.230589,-63.130142,Tourism & Culinary Centre,PE,https://fastly.4sqi.net/img/general/original/15465417_9pFDhYVeiwq1GQkqtRdms8Bo5GJxwETwfswy0dSJDok.jpg,2.8,239,College Technology Building,Prince Edward Island,950
OPERATIONAL,Stratford PE,46.213984,-63.121831,Downtown charlattetown,PE,https://ticketshop.barcelona/images/sights-barcelona.jpg,4.3,399,Other Great Outdoors,Prince Edward Island,680
OPERATIONAL,Kensington PE,46.437627,-63.711726,Crystal Beach Campground,PE,https://fastly.4sqi.net/img/general/original/10567203_ABKS4E3qgWYc8QXH7XK0Lbe-5t0F6UM3kJJVxQEcOIM.jpg,4.8,211,Campground,Prince Edward Island,1590
OPERATIONAL,"2 Russell St, Victoria PE",46.213888,-63.489263,Victoria Seaport Museum,PE,https://ticketshop.barcelona/images/sights-barcelona.jpg,1.9,252,History Museum,Prince Edward Island,230
OPERATIONAL,"619 Water St E, Summerside PE C1N 4H8",46.394124,-63.768903,College of Piping & Celtic Art,PE,https://fastly.4sqi.net/img/general/original/MyO-rn9j6khxSEn4UPZef78jFc_MxT6IGXlRGgTpvDc.jpg,3.4,267,Music School,Prince Edward Island,260
OPERATIONAL,"86 Dewar's Lane, Kings PE C0A 1G0",46.200893,-62.588377,Rodd Brudenell River Resort,PE,https://fastly.4sqi.net/img/general/original/B4CJ2PGB5EBEKNN2SXVP5P5L5MUO1KCWEJG4PVUPJNRDWXPT.jpg,2.1,489,Hotel,Prince Edward Island,1160
OPERATIONAL,Cap-Pele NB,46.215605,-64.271016,Arena Pere-Camille-Leger,NB,https://fastly.4sqi.net/img/general/original/9244842_6gt4sVa12YgHlC2_8BvcsPvfaVU8mY2K42PGClcqAR4.jpg,1.8,412,Stadium,Prince Edward Island,680
OPERATIONAL,"2193 Church Rd - Rte 243, Rustico PE C0A 1N0",46.42326,-63.284738,Barachois Inn,PE,https://ticketshop.barcelona/images/sights-barcelona.jpg,2.3,247,Bed and Breakfast,Prince Edward Island,1570
OPERATIONAL,"427 Rte 241, Hunter River PE C0A 1N0",46.448015,-63.378064,Bubbling Brook Cottages,PE,https://ticketshop.barcelona/images/sights-barcelona.jpg,4.5,464,Cottage / Cabin,Prince Edward Island,850
OPERATIONAL,"8214 Cavendish Rd Rte 6, Cavendish PE C0A 1N0",46.481651,-63.410187,Parkview Farms Tourist Home and Cottages,PE,https://ticketshop.barcelona/images/sights-barcelona.jpg,1.8,463,Bed and Breakfast,Prince Edward Island,610
OPERATIONAL,"1873 Bloor St W (at Parkside Dr), Toronto ON M6R 2Z3",43.653999,-79.464477,High Park,ON,https://fastly.4sqi.net/img/general/original/53888792_kHyhzSyrllllwJZ-BLNpCID8JafMsEgp3o81tUDCSgw.jpg,4.1,417,Urban Park,Ontario,930
OPERATIONAL,"301 Front St W (at John St), Toronto ON M5V 2T6",43.642569,-79.387196,CN Tower,ON,https://fastly.4sqi.net/img/general/original/1146228_FBEJ1fyuSeAwgI41AZwM7kETHogM7breI5HcjBkRonY.jpg,1.2,143,Building / Structure,Ontario,1840
OPERATIONAL,"2645 Woodward Ave, Detroit, MI 48201",42.341796,-83.054679,Little Caesars Arena,MI,https://fastly.4sqi.net/img/general/original/32985061_Iqy7QlUab6lV4OIPvTmOeBbwXFM3-BHWz2jZWux_aug.jpg,2.1,470,Stadium,Ontario,660
OPERATIONAL,"6161 Niagara Pky (Portage Rd), Niagara Falls ON",43.088828,-79.073551,Queen Victoria Park,ON,https://fastly.4sqi.net/img/general/original/25634891_I_mAdHIAsonmGJZxWDLofP2ZwSGhr6DN6Ua5lPtRbkM.jpg,3.5,351,Landmarks and Outdoors,Ontario,1430
OPERATIONAL,"50 Bay St, Toronto ON M5J 2L2",43.643485,-79.379209,Scotiabank Arena,ON,https://fastly.4sqi.net/img/general/original/159418_MV3M5PRsq8PCGwA1Dko-4dpV7WzmWS0r0lowEVqIl7s.jpg,1.1,212,Stadium,Ontario,1110
OPERATIONAL,"3201 Upper Middle Rd W (at QEW), Oakville ON L6M 4G5",43.417843,-79.765735,Bronte Creek,ON,https://fastly.4sqi.net/img/general/original/1D5catuGXz2Bsrb8GGa52jwnEhP7gMVsPRMlaXAhUEE.jpg,3.9,318,Campground,Ontario,1900
OPERATIONAL,"17585 Golf Pkwy, Brookfield, WI 53045",43.031475,-88.126572,Life Time Fitness,WI,https://fastly.4sqi.net/img/general/original/11759133_BHzJ655TMNSiF20SDcQd3XApmTs1GTluqU29XESoaGg.jpg,3.6,348,Gym and Studio,Ontario,1470
OPERATIONAL,"40000 High Pointe Blvd (at Haggerty Rd.), Novi, MI 48375",42.448867,-83.437535,Life Time Fitness,MI,https://fastly.4sqi.net/img/general/original/6w0rPQ5U6StHEPVDKJTHwwltrY6sERf0GIz8s6mWEWU.jpg,3.2,342,Gym and Studio,Ontario,970
OPERATIONAL,"1723 Benson Ave (at Church St), Evanston, IL 60201",42.049353,-87.683068,Evanston Athletic Club,IL,https://ticketshop.barcelona/images/sights-barcelona.jpg,2.7,115,Sports and Recreation,Ontario,530
OPERATIONAL,"4125 Radio Dr (at Bailey Rd.), Woodbury, MN 55129",44.888835,-92.939523,HealthEast Sports Center,MN,https://fastly.4sqi.net/img/general/original/_nfmrpLq3MaY3M38ROxaW3durnlOvRCcSacROMYqky8.jpg,3.6,82,Recreation Center,Ontario,1730
OPERATIONAL,"N56W14150 Silver Spring Dr, Menomonee Falls, WI 53051",43.119551,-88.087247,Kwik Trip #,WI,https://fastly.4sqi.net/img/general/original/205457416_gF7Dy94od0tg-aZBGPU-y6Rhi8KFW1ywRkzZLw9EMhY.jpg,4.1,169,Convenience Store,Ontario,940
OPERATIONAL,"ORD Airport, Chicago, IL 60666",41.974958,-87.89997,American Airlines Admirals Club,IL,https://fastly.4sqi.net/img/general/original/30841183_Yk2TeryIQrB59wUUzTI8TI_Lsn5m6lAtIFnp9g2crKw.jpg,3.8,124,Airport Lounge,Ontario,1570
OPERATIONAL,"10255 W Zemke Rd (at Mannheim Rd), Chicago, IL 60666",41.993092,-87.881249,O'Hare Multi-Modal Facility,IL,https://fastly.4sqi.net/img/general/original/12306415_S-o1k_-9f_56_GgTHm2RLVH3XEpyXTM4OEHyo9OghWg.jpg,3.7,465,Rental Car Location,Ontario,800
OPERATIONAL,"12501 W Arden Pl, Butler, WI 53007",43.099248,-88.067281,Kwik Trip | Kwik Star,WI,https://fastly.4sqi.net/img/general/original/20841610_9E9-SMh5K4eBF8I-4eeRsrVE-gWgK45vO2X8CrXENW0.jpg,3.2,272,Convenience Store,Ontario,1410
OPERATIONAL,"10923 W Lapham St, West Allis, WI 53214",43.013171,-88.048553,Kwik Trip #,WI,https://fastly.4sqi.net/img/general/original/20841610_PyJ_V4yzxlYqhAKKsfmxSwMqumJjtDBSI7AkkQnkqJI.jpg,4.6,303,Convenience Store,Ontario,1670
OPERATIONAL,"at MN Hwy 5, Minneapolis, MN 55450",44.882081,-93.208015,Minneapolis–Saint Paul International Airport (MSP),MN,https://fastly.4sqi.net/img/general/original/1610067_90CX6dqe9f1vXeD6_IgSxxcbTdorEwwYy66IprMV4oM.jpg,2.8,291,International Airport,Ontario,830
OPERATIONAL,"6301 Silver Dart Dr, Mississauga ON L5P 1B2",43.680396,-79.612593,Toronto Pearson International Airport (YYZ),ON,https://fastly.4sqi.net/img/general/original/7601846_-kATcqvYwK5MWXdIKe9YeeuX7qjNN9TNGsZrxaFOaVk.jpg,1.3,127,Airport,Ontario,1920
OPERATIONAL,"4265 S 60th St (at W Coldspring Rd), Greenfield, WI 53220",42.967097,-87.988632,Speedway,WI,https://fastly.4sqi.net/img/general/original/MKQV4AA3PY3YXWKWJR5JYLMPVJXZGAWTJ3DLAUG0A3NUTU5Y.jpg,4.3,69,Fuel Station,Ontario,1510
OPERATIONAL,"11050 Rogell Dr (at I-94 & I-275), Romulus, MI 48242",42.207263,-83.356038,Detroit Metropolitan Wayne County Airport (DTW),MI,https://fastly.4sqi.net/img/general/original/350698_s3AdJWO4OgMyyPX27itxkJWZgXAgMaJt38ZmzvOHM-U.jpg,2.7,471,International Airport,Ontario,1250
OPERATIONAL,"65 Front St W (btwn Bay & York St), Toronto ON M5J 1E6",43.645128,-79.380545,Union Station (YBZ),ON,https://fastly.4sqi.net/img/general/original/1962214_R6MJqBTJCGGkg_lUksgzp-WP5U21dPk7-Na2uBAgl9o.jpg,3.7,418,Rail Station,Ontario,2000
OPERATIONAL,"5300 S Howell Ave (W Grange Ave), Milwaukee, WI 53207",42.948235,-87.902206,Milwaukee Mitchell International Airport (MKE),WI,https://fastly.4sqi.net/img/general/original/33359225_oiO2RfQt8CZoqGVyOBG6HBBZZhQmh92phM_l8hwd8Hc.jpg,4.4,386,International Airport,Ontario,1340
OPERATIONAL,"433 W Saint Paul Ave (at N 5th St), Milwaukee, WI 53203",43.034278,-87.917339,Milwaukee Intermodal Station,WI,https://fastly.4sqi.net/img/general/original/Oqkbtm28hXiOnhqpkt1unZMMoJwjT6s_WRA9DPwlPV0.jpg,1.6,310,Rail Station,Ontario,170
OPERATIONAL,"1454 State Route 12 (at Chenango Br Rd), Binghamton, NY 13901",42.168684,-75.88672,Speedway,NY,https://fastly.4sqi.net/img/general/original/19715204_K62KQnKnzmJJOvDS10igQ5GIWDc_vNa9uVVOWyPaTmE.jpg,3.8,472,Fuel Station,Ontario,1410
OPERATIONAL,"Chicago, IL 60666",41.97703,-87.904798,Chicago O'Hare International Airport (ORD),IL,https://fastly.4sqi.net/img/general/original/9798972__yaFt62sd3lBPfOTyLD156Gnf81U5TwnhnpLsh0GbnY.jpg,1.4,125,Airport,Ontario,1920
OPERATIONAL,"315 Royal York Rd Toronto, Toronto ON",43.617555,-79.497577,Mimico GO Station,ON,https://ticketshop.barcelona/images/sights-barcelona.jpg,4.5,428,Rail Station,Ontario,1690
OPERATIONAL,"213 Erb St W, Waterloo ON N2L 1V6",43.459599,-80.535769,Waterloo Masjid,ON,https://fastly.4sqi.net/img/general/original/37225004_F1xEit96WQsVMGaInPVXTxT91LaTb38pHyVpjyeOQcI.jpg,3.4,206,Mosque,Ontario,1190
OPERATIONAL,"3150 Hwy 7, Vaughan ON",43.794154,-79.527473,Vaughan Metropolitan Centre Subway Station,ON,https://fastly.4sqi.net/img/general/original/677069_XGp4xPl03mvmoM_VJJ-pcL9E66j1_gDa37R_lrF8_uM.jpg,1.6,372,Metro Station,Ontario,1540
OPERATIONAL,"3950 Keele St, Toronto ON",43.765185,-79.491032,Finch West Subway Station,ON,https://ticketshop.barcelona/images/sights-barcelona.jpg,2.2,495,Metro Station,Ontario,1140
OPERATIONAL,"5714 Yonge St (at Finch Ave), Toronto ON M2M 4E7",43.780977,-79.414914,Finch Subway Station,ON,https://fastly.4sqi.net/img/general/original/M2ZNEUKTEXSGIYXMJ0JYCLQGBDKDDBVQPFG53QA35ZGXJE4F.jpg,3.3,322,Travel and Transportation,Ontario,1610
OPERATIONAL,"5714 Yonge St (btwn Bishop & Finch), Toronto ON M2M 1T5",43.780925,-79.414858,Finch Station Bus Loop,ON,https://fastly.4sqi.net/img/general/original/751438_dttW5UJX0R0NZ6Um01seWOU_t5khUyAY8AshZxWOOro.jpg,4.9,132,Bus Station,Ontario,480
OPERATIONAL,Mississauga ON L5P 1B2,43.685546,-79.620364,Terminal 3,ON,https://fastly.4sqi.net/img/general/original/X45KLYZFO3V3HFA0LJZWXPS4VY0NCNF3ZJIPLTPCUI5QECZQ.jpg,3.4,216,Airport Terminal,Ontario,830
OPERATIONAL,"1035 Sheppard Ave W (at Allen Rd), Toronto ON M3H 2M5",43.749579,-79.462411,Sheppard West Subway Station,ON,https://fastly.4sqi.net/img/general/original/2114577_JdShD6DGqZgCXZoWLTAI5xtdG87cJLNEoULO8U6N55c.jpg,2.7,71,Metro Station,Ontario,670
OPERATIONAL,Toronto ON,43.749475,-79.4623,Downsview Station - Parking Lot,ON,https://fastly.4sqi.net/img/general/original/175016550_PUtLGa-XpyqRE4Af9kt4h9Dx-3M6V7iFzV0ewF5U6X4.jpg,4.1,320,Parking,Ontario,300
OPERATIONAL,"3111 Convair Dr, Mississauga ON L4W 1S9",43.68085,-79.611778,Terminal 1,ON,https://fastly.4sqi.net/img/general/original/751438_FQ7YoP6fAt2DXkN4Vj2vg9vrWL8x8cjd4HAv0VdWQTg.jpg,1.5,475,Airport Terminal,Ontario,1060
OPERATIONAL,"Terminal 1 (Toronto Pearson International Airport (YYZ)), Toronto ON L5P 1B2",43.680476,-79.611706,U.S. Customs and Border Protection,ON,https://fastly.4sqi.net/img/general/original/926190_YHvQ81uXsM09htD-WtHQ15_Bg2rPFBHi8h3S5Ekw2kM.jpg,1.2,99,Border Crossing,Ontario,150
OPERATIONAL,"323 Bloor St W (at St George St), Toronto ON M5S 1W7",43.668261,-79.3998,St. George Subway Station,ON,https://fastly.4sqi.net/img/general/original/348213_3Tc1D6oiOm7KaXA8kO8kbdScjInpAvyRUBsROlOf4Tg.jpg,4.5,472,Metro Station,Ontario,1750
OPERATIONAL,"128 Fern Ave, Toronto ON M6R 1K3",43.645295,-79.446107,Fern Avenue Jr & Sr PS,ON,https://fastly.4sqi.net/img/general/original/617848_Rn3BSm9rbOFd78kqrW1oG4k35AFVFoC-yz-ZXQMJc7w.jpg,1.7,377,Elementary School,Ontario,1220
OPERATIONAL,"27 King's College Cir (at King's College Rd), Toronto ON M5S 1A1",43.66264,-79.395256,University of Toronto,ON,https://fastly.4sqi.net/img/general/original/hbdyDeGHcQTnJjNLJbvOwcPXxaxZYCtKny6uBrIw1LY.jpg,2.8,266,College Administrative Building,Ontario,1140
OPERATIONAL,"90 Danforth Ave (at Broadview Ave), Toronto ON M4K 1N1",43.676875,-79.358423,Broadview Subway Station,ON,https://ticketshop.barcelona/images/sights-barcelona.jpg,2.9,237,Metro Station,Ontario,1410
OPERATIONAL,"743 Pape Ave (at Danforth Ave), Toronto ON M4K 3T1",43.679986,-79.344883,Pape Subway Station,ON,https://fastly.4sqi.net/img/general/original/126129_Focpy7AkiMfJ4trKFn0Tk_ptul-_r0EPBvHhTu--uT8.jpg,3.8,144,Metro Station,Ontario,280
OPERATIONAL,"15 Prospect St, Toronto ON M4X 1C7",43.666526,-79.371091,Winchester Jr & Sr PS,ON,https://fastly.4sqi.net/img/general/original/53125521_RpY29yWyAykse8I1Pisa_V5sfGiOsrdv3W32WpeOxiY.jpg,2.6,208,Elementary School,Ontario,1740
OPERATIONAL,"55 Front St E (at Bay St), Toronto ON M5E 0A7",43.645586,-79.379637,Union Subway Station,ON,https://fastly.4sqi.net/img/general/original/d0fYK-wf4K2sr87bsr1kLi2kCTjAXYGOSYOK0BXTbRM.jpg,1.7,350,Metro Station,Ontario,500
OPERATIONAL,"10000 W Ohare Ave (ORD Airport), Chicago, IL 60666",41.977961,-87.906793,United Club - Concourse B,IL,https://fastly.4sqi.net/img/general/original/10483236_chIaqp4AbpW-84lhRpOJAUbXXWYbEy5QNifq9YDCj9M.jpg,3.9,275,Airport Service,Ontario,520
OPERATIONAL,"3920 Victoria St N, Saint Paul, MN 55126",45.06018,-93.130551,Shepherd of the Hills Lutheran Church,MN,https://fastly.4sqi.net/img/general/original/18783980_EncVaDMnypROhur_NVfRud4qpkYDiTb05Jf9feDNWKo.jpg,1.9,485,Church,Ontario,380
OPERATIONAL,"Saint Paul, MN 55129",44.889747,-92.930486,Bielenberg Sports Center Field 17,MN,https://fastly.4sqi.net/img/general/original/724553_GoS0vUigjKu_S7_hXHYoceMK3kHZ3RpRdGnZDRxaOSE.jpg,2.5,385,Soccer Field,Ontario,540
OPERATIONAL,"8406 Sunset Rd NE, Spring Lake Park, MN 55432",45.121914,-93.23203,Rise,MN,https://fastly.4sqi.net/img/general/original/5741_tvbE8qELkPytWa2viyv8qNF_k12OSqft0aBcMQ-N4hQ.jpg,4.9,61,Public and Social Service,Ontario,780
OPERATIONAL,"750 N University Ave, Ann Arbor, MI 48104",42.277347,-83.739194,University of Michigan,MI,https://fastly.4sqi.net/img/general/original/10ZaYx3ko-g9QjULO2_b7jkV9P5Rt3U6bxuggapGJMc.jpg,4.6,422,College and University,Ontario,1260
OPERATIONAL,"Dearborn, Michigan (Prospect), Dearborn, MI 48126",42.316493,-83.174776,Masjid Salam,MI,https://fastly.4sqi.net/img/general/original/16020953_aPtxO3NUc0uNu0jx2gFLsWK-LqIlygBUt8AdOItIGd4.jpg,3.5,347,Mosque,Ontario,130
OPERATIONAL,"1533 Dayton Ave, Saint Paul, MN 55104",44.947591,-93.165222,Primrose School of St. Paul at Merriam Park,MN,https://fastly.4sqi.net/img/general/original/87388367_ErB0MJyWTvv09y8OqH0C6j49VCeFr8tSlf0Yo6JdrOo.jpg,2.3,256,Community and Government,Ontario,1880
OPERATIONAL,"DTW Airport, Romulus, MI 48242",42.225375,-83.347904,North Terminal,MI,https://ticketshop.barcelona/images/sights-barcelona.jpg,4.2,291,Airport Service,Ontario,460
OPERATIONAL,"5440 Spring Garden Rd (at Queen St), Halifax NS B3J 1E9",44.642837,-63.575258,Halifax Central Library,NS,https://fastly.4sqi.net/img/general/original/4235415_YjK1xrhUnpagjfNIJCzPjKxxrwwjK6_39rBQgiS2XJI.jpg,4.8,355,Library,Nova Scotia,1210
OPERATIONAL,"5425 Sackville St (Brunswick), Halifax NS B3J 3Y3",44.647332,-63.580407,Halifax Citadel National Historic Site,NS,https://fastly.4sqi.net/img/general/original/35597518_maM5wKiRgl6zgT8yMvULJiAHK4WS7YosR_25HT3Rdow.jpg,4.4,475,Building / Structure,Nova Scotia,780
OPERATIONAL,"1747 Summer St, Halifax NS B3H 3A6",44.6455,-63.584887,Museum of Natural History,NS,https://fastly.4sqi.net/img/general/original/1902429_wrZm59l8wAj54AX8KlijVoiflLlKNp02d_-CK9kepfE.jpg,3.4,139,Museum,Nova Scotia,510
OPERATIONAL,"26 Thomas Raddall Dr (Lacewood Dr.), Halifax NS B3S 0E2",44.659531,-63.664369,Canada Games Centre,NS,https://fastly.4sqi.net/img/general/original/60970588_EGJh3auak8QHHmJZZvN-dqLxTjEUmZ6lVsZSxLln9X0.jpg,4.2,71,Gym and Studio,Nova Scotia,630
OPERATIONAL,"Rte 207, Lawrencetown NS B2Z 1P8",44.939438,-63.534523,Lawrencetown Beach,NS,https://fastly.4sqi.net/img/general/original/27187191_4dXtumj-UNbQfnYtbNSOI8rJxVh2WBX91aiLTIR5as4.jpg,1.6,237,Surf Spot,Nova Scotia,260
OPERATIONAL,"210 Thomas Raddall Dr, Halifax NS B3S 0J2",44.656455,-63.660256,Soccer Nova Scotia,NS,https://fastly.4sqi.net/img/general/original/53037147_lKuQkf1w1Jp9k5b4NeSSCnI7Kbk5I8Jo-hQatpGCIJA.jpg,4.3,271,Soccer Field,Nova Scotia,1430
OPERATIONAL,"5120 Salter St (at Lower Water St.), Halifax NS B3J 0A1",44.645112,-63.570694,Courtyard by Marriott Halifax Downtown,NS,https://fastly.4sqi.net/img/general/original/2824786_r_6_op0zfrXzewI9bCGnSuzG5AXrC6_vNnb9sZuqE3E.jpg,3.2,439,Hotel,Nova Scotia,440
OPERATIONAL,"1800 Argyle St, Halifax NS B3J 3N8",44.648422,-63.57574,Scotiabank Centre,NS,https://fastly.4sqi.net/img/general/original/27489242_tb4vvS-IUZIlidNPWzI73UzxLfGW0PDhCth0kXgM_9s.jpg,2.7,229,Sports and Recreation,Nova Scotia,1990
OPERATIONAL,"Centennial Dr, Moncton NB",46.088248,-64.815742,Centennial Park,NB,https://fastly.4sqi.net/img/general/original/YXcuhJfBaHHHXg4C3AATUNSkuQTiXXFjeViupS1I1zw.jpg,1.6,497,Landmarks and Outdoors,Nova Scotia,1760
OPERATIONAL,Saint John NB,45.28948,-66.056584,Rockwood Park,NB,https://fastly.4sqi.net/img/general/original/132064308_5FYWVlb0koZBJoMCAUQTua92_ShRLqGdUimT6Tl9GJc.jpg,1.1,494,Park,Nova Scotia,900
OPERATIONAL,"200 Pratt & Whitney Dr, Enfield NS B2T 0A2",44.861823,-63.544358,Hilton Garden Inn Halifax Airport,NS,https://ticketshop.barcelona/images/sights-barcelona.jpg,4.3,294,Lodging,Nova Scotia,1180
OPERATIONAL,"30 War Veterans Ave, Moncton NB E1C 0B3",46.092994,-64.801154,YMCA of Greater Moncton,NB,https://fastly.4sqi.net/img/general/original/45994953_y4elGE51dfZTVt1SElVC9if-n8QJLuoHUauJx8-W_EU.jpg,2.2,134,Gym and Studio,Nova Scotia,230
OPERATIONAL,"3164 Brackley Point Rd - Rte 15, Brackley Beach PE C1E 2N7",46.39456,-63.187503,Brackley Drive in,PE,https://fastly.4sqi.net/img/general/original/132763826__w4XKCtZpy90vR8DbiqbW-3Z9vlDjvQoNsIbTxI_LyM.jpg,3.2,169,Movie Theater,Nova Scotia,1750
OPERATIONAL,"7151 Chebucto Rd (at Armdale Rotary), Halifax NS B3L 1N5",44.642561,-63.619894,Esso,NS,https://fastly.4sqi.net/img/general/original/Yx_uqrKat9RnIgDtQscJvrE43R0_rRit86GZH5akHCs.jpg,3.7,274,Fuel Station,Nova Scotia,1720
OPERATIONAL,"330 Lacewood Dr, Halifax NS B3S 0A3",44.658734,-63.666727,Keshen Goodman Public Library,NS,https://fastly.4sqi.net/img/general/original/10886178_tbfWGN_NudHHymanizhfyXOI4A2VV1pWrVblo9Xp0Tg.jpg,1.2,310,Library,Nova Scotia,260
OPERATIONAL,"1515 S Park St (Spring Garden Rd), Halifax NS B3J 2L2",44.642725,-63.579456,The Lord Nelson Hotel & Suites,NS,https://fastly.4sqi.net/img/general/original/7928070_z2XxyU8n1AG7-L_z8u3NR1iS3BL4Vt31-T9KhP-w2kU.jpg,4.9,476,Hotel,Nova Scotia,1870
OPERATIONAL,"455 University Ave, Charlottetown PE C1A 4N8",46.249841,-63.138794,GoodLife Fitness Charlottetown Belvedere Plaza,PE,https://ticketshop.barcelona/images/sights-barcelona.jpg,3.8,350,Gym and Studio,Nova Scotia,1130
OPERATIONAL,"6101 University Ave (btwn Seymour and Henry), Halifax NS B3H 1W8",44.637889,-63.588497,Dalhousie Arts Centre,NS,https://fastly.4sqi.net/img/general/original/317340_JfwMDzOWxoGoW9IMu4fldcl2Z6CDUksUHEx4jx7apfo.jpg,2.9,470,Music Venue,Nova Scotia,860
OPERATIONAL,"1 Bell Blvd, Goffs NS B2T 1K2",44.886757,-63.514792,Halifax Stanfield International Airport (YHZ),NS,https://fastly.4sqi.net/img/general/original/RQSP2IMKX5GABEFCIZ4DZVA1ASKOSSCFY04RADXPTY512THA.jpg,4.2,174,International Airport,Nova Scotia,190
OPERATIONAL,"977 Cole Harbour Rd, Dartmouth NS B2V 1E8",44.671846,-63.492802,Shell,NS,https://fastly.4sqi.net/img/general/original/11728196_UL6g4XzBA76RHogcV3uJYhT1JlTI3_YOzN6L3B1EkaA.jpg,1.3,235,Fuel Station,Nova Scotia,1500
OPERATIONAL,"2500 Truro Rd, Westville NS B0K 2A0",45.576484,-62.725789,Irving,NS,https://fastly.4sqi.net/img/general/original/29675251_KZ63xu3VEwhQZ8pUHUp6-X4STrtNJcTP0bOsfHdWSgY.jpg,3.3,87,Fuel Station,Nova Scotia,440
OPERATIONAL,"646 Main St, Dartmouth NS B2W 3T7",44.695204,-63.496374,Esso,NS,https://fastly.4sqi.net/img/general/original/45249865_UBanKQ_LlCJKeVTQ1muTqKSHOw53OKKNnm-UXu0dQYs.jpg,4.2,72,Fuel Station,Nova Scotia,1650
OPERATIONAL,"5 Ruth Goldbloom Dr, Halifax NS B3M 0M9",44.67298,-63.663283,Shell,NS,https://ticketshop.barcelona/images/sights-barcelona.jpg,3.5,295,Fuel Station,Nova Scotia,1810
OPERATIONAL,"100 Shediac Rd, Moncton NB E1A 2R9",46.10269,-64.763675,Shell,NB,https://ticketshop.barcelona/images/sights-barcelona.jpg,4.6,441,Fuel Station,Nova Scotia,1240
OPERATIONAL,"5197 E River Rd, New Glasgow NS B2H 5C5",45.567644,-62.644655,Irving Oil,NS,https://fastly.4sqi.net/img/general/original/11676590_Xhr_uHde1-03HFZO2BDZAMpj-5OtsyqoIRlwuZTd5Uc.jpg,4.3,478,Fuel Station,Nova Scotia,1440
OPERATIONAL,"205 Albion St S, Amherst NS B4H 2X2",45.81357,-64.203964,Shell,NS,https://fastly.4sqi.net/img/general/original/14722452_T01vQVYqDXS6HkcYl_PRzbIhar9emdzxPG2NKZdTlPY.jpg,3.5,176,Fuel Station,Nova Scotia,1420
OPERATIONAL,"1983 Upper Water St (Cogswell St), Halifax NS B3J 3Y5",44.652863,-63.575878,Casino Nova Scotia,NS,https://fastly.4sqi.net/img/general/original/OXiRo3eDQpsUagP22K5U8XCTwHedlOBDsI7LRkgf2VQ.jpg,3.2,50,Casino,Nova Scotia,1430
OPERATIONAL,"110 Wyse Rd, Dartmouth NS B3A 1M2",44.669477,-63.575193,Dartmouth Sportsplex,NS,https://ticketshop.barcelona/images/sights-barcelona.jpg,2.1,313,Gym and Studio,Nova Scotia,1910
OPERATIONAL,"1980 Robie St, Halifax NS B3H 3G5",44.646653,-63.590393,Atlantica Hotel Halifax,NS,https://fastly.4sqi.net/img/general/original/16082835_6gfdY8oy5g7p1AF8NoJnx3ZA922TwSmS96yjm2p51Jw.jpg,3.6,447,Lodging,Nova Scotia,1870
OPERATIONAL,"238 Grafton St, Charlottetown PE C1A 1L5",46.237898,-63.123243,Charlottetown Inn & Conference Centre,PE,https://fastly.4sqi.net/img/general/original/53232089_xsWfXnZHH82FnYVaUKR4AmtS2W14-mgcVLyiy6SaQDY.jpg,2.5,432,Hotel,Nova Scotia,1740
OPERATIONAL,"99 Water St, Pictou NS B0K 1H0",45.676013,-62.71304,DeCoste Entertainment Centre,NS,https://fastly.4sqi.net/img/general/original/2056192_sjHCvg_G0qelXX8CHzJhDP9vqRN0M3Yyyokll-OBBuM.jpg,1.4,90,Music Venue,Nova Scotia,1030
OPERATIONAL,"Halifax Stanfield, Enfield NS",44.888798,-63.515861,US Departures,NS,https://fastly.4sqi.net/img/general/original/72127374_3qok7kdQTrux2GSx8dTyY5wkveTSPvPlozZ_suxHbcw.jpg,1.5,466,Airport Terminal,Nova Scotia,1280
OPERATIONAL,"Halifax Stanfield, Enfield NS",44.885817,-63.51502,Air Canada Check in,NS,https://fastly.4sqi.net/img/general/original/8594419_jPs8ZyBHQqbNyejo-ncR8fLH2giFVjfwHPx_9R-zvwA.jpg,2.4,265,Airport Terminal,Nova Scotia,990
OPERATIONAL,"148 Lockview Rd, Fall River NS B2T 1J1",44.823414,-63.619543,Lockview High School,NS,https://fastly.4sqi.net/img/general/original/46038912_0StxRZfzXQVLPwBkhqecY_rYp40UL5R-NW7bH0fZ-Ys.jpg,3.2,124,Elementary School,Nova Scotia,150
OPERATIONAL,Halifax NS,44.79847,-63.601025,"Waverley, NS",NS,https://fastly.4sqi.net/img/general/original/Urs46X7Xw4WnbCK7Qsj4cfSFJy3cWD8jdKg_Cb4BISQ.jpg,1.2,192,Lake,Nova Scotia,1400
OPERATIONAL,"10 Cherry Brook Rd, Cherry Brook NS B2Z 1A8",44.703134,-63.471775,Black Cultural Centre for Nova Scotia,NS,https://fastly.4sqi.net/img/general/original/950149_eJI5FGXPl9K_j687U448stu7cDPIphnf0oIUjp1neio.jpg,3.4,446,History Museum,Nova Scotia,1460
OPERATIONAL,"250 Maple Hills Ave, Charlottetown PE C1C 1N2",46.285717,-63.131286,Charlottetown Airport,PE,https://ticketshop.barcelona/images/sights-barcelona.jpg,4.9,259,Airport Service,Nova Scotia,700
OPERATIONAL,"35 Shubie Dr, Dartmouth NS B3B 0N4",44.70795,-63.56483,Residence Inn by Marriott Halifax Dartmouth,NS,https://fastly.4sqi.net/img/general/original/87388367_WdHJ3P-Zplu-Ru98y7jCXGroxzbct82Q8REGXagZYvM.jpg,3.4,470,Lodging,Nova Scotia,830
OPERATIONAL,"70 Dorothea Dr, Dartmouth NS B2W 4M3",44.67727,-63.507487,Eric Graves Memorial Junior High School,NS,https://ticketshop.barcelona/images/sights-barcelona.jpg,3.9,293,Elementary School,Nova Scotia,160
OPERATIONAL,"36 Duke St, Bedford NS B4A 2Z5",44.747138,-63.637294,Maritime Dance Academy,NS,https://fastly.4sqi.net/img/general/original/75425543_rHyv20c-Y42LhUZ_55CkYsLxFn5J3sRN9bP2rumGaY8.jpg,2.4,85,Dance Studio,Nova Scotia,910
OPERATIONAL,"335 John Savage Ave, Dartmouth NS B3B 0J3",44.704763,-63.575073,"Holiday Inn Express & Suites Halifax – Dartmouth, an IHG Hotel",NS,https://fastly.4sqi.net/img/general/original/87388367_Q6er8ez7MFDFBtePZpWRoLnwpjZYaKzPkU5-VZLVi3A.jpg,4.5,185,Lodging,Nova Scotia,1510
OPERATIONAL,"Portland St, Dartmouth NS B2W 0A2",44.671377,-63.52576,Atlantic Superstore Gas Bar,NS,https://fastly.4sqi.net/img/general/original/100883_R0VeeKdiTWsY4TQLi6K-D0-qLt8uITISakz8NJDvBeA.jpg,3.6,228,Fuel Station,Nova Scotia,1090
OPERATIONAL,Dartmouth NS,44.693198,-63.583391,Metro Transit Burnside Garage,NS,https://fastly.4sqi.net/img/general/original/56698630_i3J8HiEt2Eqqn2945eSyx1gh_hYYJOWEduAUwIWrukg.jpg,2.4,402,Bus Station,Nova Scotia,790
OPERATIONAL,"Albro Lake Rd, Dartmouth NS",44.686267,-63.579594,Albro Lake Beach,NS,https://fastly.4sqi.net/img/general/original/MJkc_BPtOAlNEjh8FQshAqY5HFVGSz0S_0G3yfXpxEY.jpg,4.7,363,Beach,Nova Scotia,180
OPERATIONAL,Dartmouth NS,44.684606,-63.589165,Highfield Terminal [Southbound],NS,https://fastly.4sqi.net/img/general/original/304497_8O_ufY-wFSTjM5agQQtX6k_Bi4y3zF0TT3AJ0e0zBP0.jpg,2.1,289,Travel and Transportation,Nova Scotia,650
OPERATIONAL,"112 Wyse Rd (at Nantucket Ave.), Dartmouth NS B3A 1M2",44.670613,-63.574553,Dartmouth Bridge Terminal,NS,https://fastly.4sqi.net/img/general/original/380775_honXdY7399-fDux5S4eQm-9P1sixwlyizqtAQ7K-EUo.jpg,3.8,123,Bus Station,Nova Scotia,670
OPERATIONAL,"277 Pleasant St (Acadia St), Dartmouth NS B2Y 4B7",44.655788,-63.54922,Provincial Court,NS,https://ticketshop.barcelona/images/sights-barcelona.jpg,1.8,305,Courthouse,Nova Scotia,1880
OPERATIONAL,"Mawiomi Pl (Pleasant Street), Dartmouth NS",44.654021,-63.55214,NSCC Waterfront Cafeteria,NS,https://ticketshop.barcelona/images/sights-barcelona.jpg,1.5,183,College Cafeteria,Nova Scotia,1240
OPERATIONAL,"80 Mawiomi Pl, Halifax NS",44.65391,-63.552162,NSCC Waterfront Campus,NS,https://fastly.4sqi.net/img/general/original/20273343_tJVGFNmwbRuzpeZyd18PwYo7EsiroYXQex_6qpA1ryw.jpg,3.2,67,Education,Nova Scotia,490
OPERATIONAL,"Nova Scotia 111, Halifax NS B2Y 3Y2",44.687614,-63.598926,A. Murray MacKay Bridge,NS,https://fastly.4sqi.net/img/general/original/57151921_RDPU5K1WGkdg5sa88_yp5dWBv6dpwx_O1kPUenYVrrc.jpg,1.7,103,Bridge,Nova Scotia,1240
OPERATIONAL,"5440 Spring Garden Rd (at Queen St), Halifax NS B3J 1E9",44.642837,-63.575258,Halifax Central Library,NS,https://fastly.4sqi.net/img/general/original/20273343_ml-1Nd2_CykbHWYA8PawWMBtQvsMxlsQoKL2VF0IDWU.jpg,4.3,468,Library,Alberta,350
OPERATIONAL,"5425 Sackville St (Brunswick), Halifax NS B3J 3Y3",44.647332,-63.580407,Halifax Citadel National Historic Site,NS,https://fastly.4sqi.net/img/general/original/9YMper4Sc9Lhi5_1DBiuWO1Dn__DaSyrmnic9VaxBSg.jpg,1.2,138,Building / Structure,Alberta,1660
OPERATIONAL,"1747 Summer St, Halifax NS B3H 3A6",44.6455,-63.584887,Museum of Natural History,NS,https://fastly.4sqi.net/img/general/original/dfZ2ftdINLQak7lZlwBG78Cf7Wx0itS4Rjf57r5Wt1U.jpg,1.1,359,Museum,Alberta,770
OPERATIONAL,"26 Thomas Raddall Dr (Lacewood Dr.), Halifax NS B3S 0E2",44.659531,-63.664369,Canada Games Centre,NS,https://ticketshop.barcelona/images/sights-barcelona.jpg,2.3,146,Gym and Studio,Alberta,1870
OPERATIONAL,"Rte 207, Lawrencetown NS B2Z 1P8",44.939438,-63.534523,Lawrencetown Beach,NS,https://fastly.4sqi.net/img/general/original/27187191_4dXtumj-UNbQfnYtbNSOI8rJxVh2WBX91aiLTIR5as4.jpg,4.7,318,Surf Spot,Alberta,470
OPERATIONAL,"210 Thomas Raddall Dr, Halifax NS B3S 0J2",44.656455,-63.660256,Soccer Nova Scotia,NS,https://ticketshop.barcelona/images/sights-barcelona.jpg,3.6,167,Soccer Field,Alberta,1170
OPERATIONAL,"5120 Salter St (at Lower Water St.), Halifax NS B3J 0A1",44.645112,-63.570694,Courtyard by Marriott Halifax Downtown,NS,https://fastly.4sqi.net/img/general/original/8812960_qSgx5k8ihbKdsp2ZjVqUu547-Y7sGrJu_V6a90-mFP4.jpg,1.8,320,Hotel,Alberta,980
OPERATIONAL,"1800 Argyle St, Halifax NS B3J 3N8",44.648422,-63.57574,Scotiabank Centre,NS,https://fastly.4sqi.net/img/general/original/8779104_4xU63ybrPBjvkfvAI1TIfNdmVIBZ07OzsT2cEoAhfEo.jpg,4.4,452,Sports and Recreation,Alberta,1650
OPERATIONAL,"Centennial Dr, Moncton NB",46.088248,-64.815742,Centennial Park,NB,https://ticketshop.barcelona/images/sights-barcelona.jpg,2.6,167,Landmarks and Outdoors,Alberta,1120
OPERATIONAL,Saint John NB,45.28948,-66.056584,Rockwood Park,NB,https://ticketshop.barcelona/images/sights-barcelona.jpg,2.7,322,Park,Alberta,620
OPERATIONAL,"200 Pratt & Whitney Dr, Enfield NS B2T 0A2",44.861823,-63.544358,Hilton Garden Inn Halifax Airport,NS,https://fastly.4sqi.net/img/general/original/56561883_cAjCxncEcA6HfMz68bD1QM0xv-GlXWKy9ZsmZkLc-pk.jpg,2.8,59,Lodging,Alberta,130
OPERATIONAL,"30 War Veterans Ave, Moncton NB E1C 0B3",46.092994,-64.801154,YMCA of Greater Moncton,NB,https://fastly.4sqi.net/img/general/original/58786123_9eIzlokelEOGrOWfQOO99rR3kgDrNjvMkxw-fO9DikE.jpg,4.1,193,Gym and Studio,Alberta,170
OPERATIONAL,"3164 Brackley Point Rd - Rte 15, Brackley Beach PE C1E 2N7",46.39456,-63.187503,Brackley Drive in,PE,https://fastly.4sqi.net/img/general/original/125835092_y0gjlk4Eps6uu-0NnsLFoZxiT4mp3ioee6vkH2mCELQ.jpg,3.6,467,Movie Theater,Alberta,150
OPERATIONAL,"7151 Chebucto Rd (at Armdale Rotary), Halifax NS B3L 1N5",44.642561,-63.619894,Esso,NS,https://fastly.4sqi.net/img/general/original/23083955_gIDsBLYPg9RMhl8gpCAiQuENRqOJmFSeCDQCLnWvV5w.jpg,1.1,385,Fuel Station,Alberta,660
OPERATIONAL,"330 Lacewood Dr, Halifax NS B3S 0A3",44.658734,-63.666727,Keshen Goodman Public Library,NS,https://fastly.4sqi.net/img/general/original/mKv7XrbJAeFBQFn2ZCs_hYfb8H3WW4zPKHvanJbDaY0.jpg,1.2,358,Library,Alberta,1500
OPERATIONAL,"1515 S Park St (Spring Garden Rd), Halifax NS B3J 2L2",44.642725,-63.579456,The Lord Nelson Hotel & Suites,NS,https://fastly.4sqi.net/img/general/original/380775_mKqP2ylD-vB4Ukt7Z7OVaIXgcM3eOIGgrcicb35nl_c.jpg,3.9,241,Hotel,Alberta,1240
OPERATIONAL,"455 University Ave, Charlottetown PE C1A 4N8",46.249841,-63.138794,GoodLife Fitness Charlottetown Belvedere Plaza,PE,https://ticketshop.barcelona/images/sights-barcelona.jpg,1.9,418,Gym and Studio,Alberta,1570
OPERATIONAL,"6101 University Ave (btwn Seymour and Henry), Halifax NS B3H 1W8",44.637889,-63.588497,Dalhousie Arts Centre,NS,https://fastly.4sqi.net/img/general/original/1265429_UGPjFfogOZ5u2RLqlUi_FdVq7FJvDsw1lTKc9MfRxKc.jpg,3.4,277,Music Venue,Alberta,1940
OPERATIONAL,"1 Bell Blvd, Goffs NS B2T 1K2",44.886757,-63.514792,Halifax Stanfield International Airport (YHZ),NS,https://fastly.4sqi.net/img/general/original/mPbgR1tO9YSBKHF5T1D06DqD7u87z7VzXRBHnK9x69k.jpg,3.7,196,International Airport,Alberta,1180
OPERATIONAL,"977 Cole Harbour Rd, Dartmouth NS B2V 1E8",44.671846,-63.492802,Shell,NS,https://fastly.4sqi.net/img/general/original/11728196_r4V7mrhcCZjRNmnaSoyzZ9RKb5nPCE_bT0FwJBKELfM.jpg,1.3,190,Fuel Station,Alberta,1140
OPERATIONAL,"2500 Truro Rd, Westville NS B0K 2A0",45.576484,-62.725789,Irving,NS,https://fastly.4sqi.net/img/general/original/11676590_J3X6DXoG4EqomOIVqe8Vdju7lfo8vBLXwojFlUi39Kg.jpg,4.5,184,Fuel Station,Alberta,1540
OPERATIONAL,"646 Main St, Dartmouth NS B2W 3T7",44.695204,-63.496374,Esso,NS,https://fastly.4sqi.net/img/general/original/45249865_UBanKQ_LlCJKeVTQ1muTqKSHOw53OKKNnm-UXu0dQYs.jpg,3.4,209,Fuel Station,Alberta,1090
OPERATIONAL,"5 Ruth Goldbloom Dr, Halifax NS B3M 0M9",44.67298,-63.663283,Shell,NS,https://ticketshop.barcelona/images/sights-barcelona.jpg,2.8,75,Fuel Station,Alberta,860
OPERATIONAL,"100 Shediac Rd, Moncton NB E1A 2R9",46.10269,-64.763675,Shell,NB,https://ticketshop.barcelona/images/sights-barcelona.jpg,2.2,301,Fuel Station,Alberta,1430
OPERATIONAL,"5197 E River Rd, New Glasgow NS B2H 5C5",45.567644,-62.644655,Irving Oil,NS,https://ticketshop.barcelona/images/sights-barcelona.jpg,1.2,373,Fuel Station,Alberta,230
OPERATIONAL,"205 Albion St S, Amherst NS B4H 2X2",45.81357,-64.203964,Shell,NS,https://fastly.4sqi.net/img/general/original/14722452_T01vQVYqDXS6HkcYl_PRzbIhar9emdzxPG2NKZdTlPY.jpg,2.7,114,Fuel Station,Alberta,1080
OPERATIONAL,"1983 Upper Water St (Cogswell St), Halifax NS B3J 3Y5",44.652863,-63.575878,Casino Nova Scotia,NS,https://fastly.4sqi.net/img/general/original/31813031_snO0UK8VITE7ThagnYWa84285Qq5_NZPpcycopEZC40.jpg,3.6,445,Casino,Alberta,1080
OPERATIONAL,"110 Wyse Rd, Dartmouth NS B3A 1M2",44.669477,-63.575193,Dartmouth Sportsplex,NS,https://fastly.4sqi.net/img/general/original/52889661_pBrINrOb7q1pkZLykMiFxsUPAo-YeJrh5Q7wrAZf8-o.jpg,1.1,387,Gym and Studio,Alberta,1960
OPERATIONAL,"1980 Robie St, Halifax NS B3H 3G5",44.646653,-63.590393,Atlantica Hotel Halifax,NS,https://fastly.4sqi.net/img/general/original/8297938_J2oSt_Hkdcxk1-ZCQhj9upo9CJHRlaqHcVl2KX-uU_k.jpg,1.2,185,Lodging,Alberta,800
OPERATIONAL,"238 Grafton St, Charlottetown PE C1A 1L5",46.237898,-63.123243,Charlottetown Inn & Conference Centre,PE,https://fastly.4sqi.net/img/general/original/53232089_BPo2UYYZzt9evp3-hoZAttH2Db12R0HFYyStnNaiebg.jpg,2.5,475,Hotel,Alberta,1020
OPERATIONAL,"99 Water St, Pictou NS B0K 1H0",45.676013,-62.71304,DeCoste Entertainment Centre,NS,https://fastly.4sqi.net/img/general/original/2056192_sjHCvg_G0qelXX8CHzJhDP9vqRN0M3Yyyokll-OBBuM.jpg,3.8,350,Music Venue,Alberta,1640
OPERATIONAL,"Halifax Stanfield, Enfield NS",44.888798,-63.515861,US Departures,NS,https://fastly.4sqi.net/img/general/original/703919_pYvLmciVwMc1nkBr2-hCuXJuktcLLwNmJMpGH2zmP1Q.jpg,4.4,127,Airport Terminal,Alberta,1620
OPERATIONAL,"Halifax Stanfield, Enfield NS",44.885817,-63.51502,Air Canada Check in,NS,https://ticketshop.barcelona/images/sights-barcelona.jpg,2.2,227,Airport Terminal,Alberta,510
OPERATIONAL,"148 Lockview Rd, Fall River NS B2T 1J1",44.823414,-63.619543,Lockview High School,NS,https://fastly.4sqi.net/img/general/original/46038912_0StxRZfzXQVLPwBkhqecY_rYp40UL5R-NW7bH0fZ-Ys.jpg,1.4,248,Elementary School,Alberta,680
OPERATIONAL,Halifax NS,44.79847,-63.601025,"Waverley, NS",NS,https://fastly.4sqi.net/img/general/original/CMRYYq9Y0XVyXBqfglppLWLPA_1lWnjnU93cxTLE9sc.jpg,3.5,236,Lake,Alberta,1930
OPERATIONAL,"10 Cherry Brook Rd, Cherry Brook NS B2Z 1A8",44.703134,-63.471775,Black Cultural Centre for Nova Scotia,NS,https://fastly.4sqi.net/img/general/original/950149_eJI5FGXPl9K_j687U448stu7cDPIphnf0oIUjp1neio.jpg,3.6,445,History Museum,Alberta,1500
OPERATIONAL,"250 Maple Hills Ave, Charlottetown PE C1C 1N2",46.285717,-63.131286,Charlottetown Airport,PE,https://fastly.4sqi.net/img/general/original/1668669_xGA1Xc-K1EzpDnVeeoCoe_jDwBV6bsfKKkHq9r-lv2w.jpg,3.9,177,Airport Service,Alberta,1240
OPERATIONAL,"35 Shubie Dr, Dartmouth NS B3B 0N4",44.70795,-63.56483,Residence Inn by Marriott Halifax Dartmouth,NS,https://fastly.4sqi.net/img/general/original/87388367_Kg9UGGDvcyPSc-lspjcGZkk8NtoH8H4-1J6e7izFvJ4.jpg,4.9,479,Lodging,Alberta,1260
OPERATIONAL,"70 Dorothea Dr, Dartmouth NS B2W 4M3",44.67727,-63.507487,Eric Graves Memorial Junior High School,NS,https://ticketshop.barcelona/images/sights-barcelona.jpg,1.9,76,Elementary School,Alberta,1330
OPERATIONAL,"36 Duke St, Bedford NS B4A 2Z5",44.747138,-63.637294,Maritime Dance Academy,NS,https://fastly.4sqi.net/img/general/original/8453048_fO_5OA2jrJVDpJwaEjCCH1x9Sbjmk2AZ2ug4NXORsNc.jpg,4.5,464,Dance Studio,Alberta,1450
OPERATIONAL,"335 John Savage Ave, Dartmouth NS B3B 0J3",44.704763,-63.575073,"Holiday Inn Express & Suites Halifax – Dartmouth, an IHG Hotel",NS,https://fastly.4sqi.net/img/general/original/87388367_Q6er8ez7MFDFBtePZpWRoLnwpjZYaKzPkU5-VZLVi3A.jpg,4.6,238,Lodging,Alberta,670
OPERATIONAL,"Portland St, Dartmouth NS B2W 0A2",44.671377,-63.52576,Atlantic Superstore Gas Bar,NS,https://fastly.4sqi.net/img/general/original/100883_R0VeeKdiTWsY4TQLi6K-D0-qLt8uITISakz8NJDvBeA.jpg,4.9,360,Fuel Station,Alberta,720
OPERATIONAL,Dartmouth NS,44.693198,-63.583391,Metro Transit Burnside Garage,NS,https://fastly.4sqi.net/img/general/original/56698630_i3J8HiEt2Eqqn2945eSyx1gh_hYYJOWEduAUwIWrukg.jpg,3.6,389,Bus Station,Alberta,1520
OPERATIONAL,"Albro Lake Rd, Dartmouth NS",44.686267,-63.579594,Albro Lake Beach,NS,https://fastly.4sqi.net/img/general/original/MJkc_BPtOAlNEjh8FQshAqY5HFVGSz0S_0G3yfXpxEY.jpg,4.4,465,Beach,Alberta,880
OPERATIONAL,Dartmouth NS,44.684606,-63.589165,Highfield Terminal [Southbound],NS,https://fastly.4sqi.net/img/general/original/304497_8O_ufY-wFSTjM5agQQtX6k_Bi4y3zF0TT3AJ0e0zBP0.jpg,1.1,500,Travel and Transportation,Alberta,980
OPERATIONAL,"112 Wyse Rd (at Nantucket Ave.), Dartmouth NS B3A 1M2",44.670613,-63.574553,Dartmouth Bridge Terminal,NS,https://fastly.4sqi.net/img/general/original/380775_honXdY7399-fDux5S4eQm-9P1sixwlyizqtAQ7K-EUo.jpg,2.7,176,Bus Station,Alberta,100
OPERATIONAL,"277 Pleasant St (Acadia St), Dartmouth NS B2Y 4B7",44.655788,-63.54922,Provincial Court,NS,https://ticketshop.barcelona/images/sights-barcelona.jpg,4.9,431,Courthouse,Alberta,1700
OPERATIONAL,"Mawiomi Pl (Pleasant Street), Dartmouth NS",44.654021,-63.55214,NSCC Waterfront Cafeteria,NS,https://ticketshop.barcelona/images/sights-barcelona.jpg,2.8,497,College Cafeteria,Alberta,550
OPERATIONAL,"80 Mawiomi Pl, Halifax NS",44.65391,-63.552162,NSCC Waterfront Campus,NS,https://fastly.4sqi.net/img/general/original/21267059_MWdMy8FwR5OPkD3zBEZSUZnss368AtG64W9xC8jFAAw.jpg,2.8,169,Education,Alberta,1730
OPERATIONAL,"Nova Scotia 111, Halifax NS B2Y 3Y2",44.687614,-63.598926,A. Murray MacKay Bridge,NS,https://fastly.4sqi.net/img/general/original/41549158_gu1m5aYX3B7gospbKrSjyRoRV6EHai2dThxv7JqB8Rc.jpg,1.7,130,Bridge,Alberta,490
OPERATIONAL,"5440 Spring Garden Rd (at Queen St), Halifax NS B3J 1E9",44.642837,-63.575258,Halifax Central Library,NS,https://fastly.4sqi.net/img/general/original/20273343_ml-1Nd2_CykbHWYA8PawWMBtQvsMxlsQoKL2VF0IDWU.jpg,4.9,56,Library,British Columia,1000
OPERATIONAL,"5425 Sackville St (Brunswick), Halifax NS B3J 3Y3",44.647332,-63.580407,Halifax Citadel National Historic Site,NS,https://fastly.4sqi.net/img/general/original/40116650_1QI1XJjI5YeCq6gvCMDmAZAU0FgrAhErD50Mp-74Y94.jpg,3.1,131,Building / Structure,British Columia,1330
OPERATIONAL,"1747 Summer St, Halifax NS B3H 3A6",44.6455,-63.584887,Museum of Natural History,NS,https://fastly.4sqi.net/img/general/original/l1BhshihKCL-j-IvQrkoXKwiW2ImskYNEQQ9gU-_jRc.jpg,2.8,134,Museum,British Columia,1300
OPERATIONAL,"26 Thomas Raddall Dr (Lacewood Dr.), Halifax NS B3S 0E2",44.659531,-63.664369,Canada Games Centre,NS,https://fastly.4sqi.net/img/general/original/ALivbq0D-BpNlOa2Khd6Q_Ttj1iE-IjQ_y9abkAbNdQ.jpg,2.4,408,Gym and Studio,British Columia,580
OPERATIONAL,"Rte 207, Lawrencetown NS B2Z 1P8",44.939438,-63.534523,Lawrencetown Beach,NS,https://fastly.4sqi.net/img/general/original/42593933_cMO7DS6LalPNHXMbciLZt-Zxh7jMSYsSJ90Z8ogkjBM.jpg,4.3,331,Surf Spot,British Columia,1440
OPERATIONAL,"210 Thomas Raddall Dr, Halifax NS B3S 0J2",44.656455,-63.660256,Soccer Nova Scotia,NS,https://fastly.4sqi.net/img/general/original/LVTRD11PUAZUH1NHQDVVDBN3JW5A0ZLLIOESA0VTS4OPZ0NB.jpg,2.2,432,Soccer Field,British Columia,1620
OPERATIONAL,"5120 Salter St (at Lower Water St.), Halifax NS B3J 0A1",44.645112,-63.570694,Courtyard by Marriott Halifax Downtown,NS,https://fastly.4sqi.net/img/general/original/2824786_dGVvYrNhi3G-iSbBAR-0m_OjwPrH8YPGIUSLbgWmuA0.jpg,1.5,456,Hotel,British Columia,1710
OPERATIONAL,"1800 Argyle St, Halifax NS B3J 3N8",44.648422,-63.57574,Scotiabank Centre,NS,https://fastly.4sqi.net/img/general/original/8779104_4xU63ybrPBjvkfvAI1TIfNdmVIBZ07OzsT2cEoAhfEo.jpg,3.7,69,Sports and Recreation,British Columia,1560
OPERATIONAL,"Centennial Dr, Moncton NB",46.088248,-64.815742,Centennial Park,NB,https://fastly.4sqi.net/img/general/original/7275527_v91rEVjooMhCHNyRREeeuQ3UbR2VoYGxVMzHvjuyZW4.jpg,1.4,136,Landmarks and Outdoors,British Columia,650
OPERATIONAL,Saint John NB,45.28948,-66.056584,Rockwood Park,NB,https://fastly.4sqi.net/img/general/original/NNCUE13NET4TKRNKIRXURX04VPSHQEXELVQ3KHMA4QNHVJMM.jpg,2.6,104,Park,British Columia,1910
OPERATIONAL,"200 Pratt & Whitney Dr, Enfield NS B2T 0A2",44.861823,-63.544358,Hilton Garden Inn Halifax Airport,NS,https://fastly.4sqi.net/img/general/original/5819675_5m74d8l2LZ8WCTmPJvGHhAr_USZHOI1uGo6yLlXKwm0.jpg,2.9,493,Lodging,British Columia,1050
OPERATIONAL,"30 War Veterans Ave, Moncton NB E1C 0B3",46.092994,-64.801154,YMCA of Greater Moncton,NB,https://fastly.4sqi.net/img/general/original/58786123_9eIzlokelEOGrOWfQOO99rR3kgDrNjvMkxw-fO9DikE.jpg,1.2,341,Gym and Studio,British Columia,1910
OPERATIONAL,"3164 Brackley Point Rd - Rte 15, Brackley Beach PE C1E 2N7",46.39456,-63.187503,Brackley Drive in,PE,https://fastly.4sqi.net/img/general/original/PijnPH4VzwnpyGsBdpdngB_x1Rksnwem6Vw5TsHA15g.jpg,2.1,257,Movie Theater,British Columia,1090
OPERATIONAL,"7151 Chebucto Rd (at Armdale Rotary), Halifax NS B3L 1N5",44.642561,-63.619894,Esso,NS,https://fastly.4sqi.net/img/general/original/KswNf0utw4vzv2RDdPQwwS1CNdW-_kT36C81dGC14RA.jpg,4.2,419,Fuel Station,British Columia,1530
OPERATIONAL,"330 Lacewood Dr, Halifax NS B3S 0A3",44.658734,-63.666727,Keshen Goodman Public Library,NS,https://fastly.4sqi.net/img/general/original/mKv7XrbJAeFBQFn2ZCs_hYfb8H3WW4zPKHvanJbDaY0.jpg,1.9,485,Library,British Columia,120
OPERATIONAL,"1515 S Park St (Spring Garden Rd), Halifax NS B3J 2L2",44.642725,-63.579456,The Lord Nelson Hotel & Suites,NS,https://fastly.4sqi.net/img/general/original/7928070_z2XxyU8n1AG7-L_z8u3NR1iS3BL4Vt31-T9KhP-w2kU.jpg,3.9,205,Hotel,British Columia,880
OPERATIONAL,"455 University Ave, Charlottetown PE C1A 4N8",46.249841,-63.138794,GoodLife Fitness Charlottetown Belvedere Plaza,PE,https://ticketshop.barcelona/images/sights-barcelona.jpg,3.6,67,Gym and Studio,British Columia,480
OPERATIONAL,"6101 University Ave (btwn Seymour and Henry), Halifax NS B3H 1W8",44.637889,-63.588497,Dalhousie Arts Centre,NS,https://fastly.4sqi.net/img/general/original/317340_JfwMDzOWxoGoW9IMu4fldcl2Z6CDUksUHEx4jx7apfo.jpg,2.4,483,Music Venue,British Columia,810
OPERATIONAL,"1 Bell Blvd, Goffs NS B2T 1K2",44.886757,-63.514792,Halifax Stanfield International Airport (YHZ),NS,https://fastly.4sqi.net/img/general/original/MuVwkAJ8LtWD5WPPquVIcDFyP9Aq9NaL2mbC20orG0A.jpg,4.2,280,International Airport,British Columia,1860
OPERATIONAL,"977 Cole Harbour Rd, Dartmouth NS B2V 1E8",44.671846,-63.492802,Shell,NS,https://fastly.4sqi.net/img/general/original/11728196_-tYOoDxgeORi6M6ejqSdWdH-AtvcBS8XJz5hCf50B4o.jpg,1.2,230,Fuel Station,British Columia,1390
OPERATIONAL,"2500 Truro Rd, Westville NS B0K 2A0",45.576484,-62.725789,Irving,NS,https://fastly.4sqi.net/img/general/original/29675251_Oqv-gxqXEcU7ad8HXgQX5ueTkvh7aMjnqiA7rep7xrQ.jpg,3.4,226,Fuel Station,British Columia,1140
OPERATIONAL,"646 Main St, Dartmouth NS B2W 3T7",44.695204,-63.496374,Esso,NS,https://fastly.4sqi.net/img/general/original/45249865_UBanKQ_LlCJKeVTQ1muTqKSHOw53OKKNnm-UXu0dQYs.jpg,1.2,264,Fuel Station,British Columia,1650
OPERATIONAL,"5 Ruth Goldbloom Dr, Halifax NS B3M 0M9",44.67298,-63.663283,Shell,NS,https://ticketshop.barcelona/images/sights-barcelona.jpg,4.9,127,Fuel Station,British Columia,300
OPERATIONAL,"100 Shediac Rd, Moncton NB E1A 2R9",46.10269,-64.763675,Shell,NB,https://ticketshop.barcelona/images/sights-barcelona.jpg,3.3,338,Fuel Station,British Columia,240
OPERATIONAL,"5197 E River Rd, New Glasgow NS B2H 5C5",45.567644,-62.644655,Irving Oil,NS,https://fastly.4sqi.net/img/general/original/9420243__zqDbM-JLcJG4RguknOvFyguG5Td05KHQmQUTxIpO_8.jpg,2.5,277,Fuel Station,British Columia,1900
OPERATIONAL,"205 Albion St S, Amherst NS B4H 2X2",45.81357,-64.203964,Shell,NS,https://fastly.4sqi.net/img/general/original/14722452_T01vQVYqDXS6HkcYl_PRzbIhar9emdzxPG2NKZdTlPY.jpg,1.8,295,Fuel Station,British Columia,1940
OPERATIONAL,"1983 Upper Water St (Cogswell St), Halifax NS B3J 3Y5",44.652863,-63.575878,Casino Nova Scotia,NS,https://fastly.4sqi.net/img/general/original/OXiRo3eDQpsUagP22K5U8XCTwHedlOBDsI7LRkgf2VQ.jpg,3.2,369,Casino,British Columia,1690
OPERATIONAL,"110 Wyse Rd, Dartmouth NS B3A 1M2",44.669477,-63.575193,Dartmouth Sportsplex,NS,https://fastly.4sqi.net/img/general/original/35495436_g08augRzbc36gUDKmIUdnKSabkQC_GJ3YJN3nqWg6U0.jpg,4.3,464,Gym and Studio,British Columia,1610
OPERATIONAL,"1980 Robie St, Halifax NS B3H 3G5",44.646653,-63.590393,Atlantica Hotel Halifax,NS,https://fastly.4sqi.net/img/general/original/8297938_J2oSt_Hkdcxk1-ZCQhj9upo9CJHRlaqHcVl2KX-uU_k.jpg,3.7,171,Lodging,British Columia,1780
OPERATIONAL,"238 Grafton St, Charlottetown PE C1A 1L5",46.237898,-63.123243,Charlottetown Inn & Conference Centre,PE,https://fastly.4sqi.net/img/general/original/53232089_cdTFpAgnOw4XkqSWM1dnENETrmTVBFM4lYLxE_UCQTs.jpg,1.9,147,Hotel,British Columia,1360
OPERATIONAL,"99 Water St, Pictou NS B0K 1H0",45.676013,-62.71304,DeCoste Entertainment Centre,NS,https://fastly.4sqi.net/img/general/original/2056192_sjHCvg_G0qelXX8CHzJhDP9vqRN0M3Yyyokll-OBBuM.jpg,3.7,454,Music Venue,British Columia,1580
OPERATIONAL,"Halifax Stanfield, Enfield NS",44.888798,-63.515861,US Departures,NS,https://fastly.4sqi.net/img/general/original/1596890_kShGN90jbYg7lxUkYWS2TgTpESl2IZqRJcF36XAXZVY.jpg,2.1,383,Airport Terminal,British Columia,1790
OPERATIONAL,"Halifax Stanfield, Enfield NS",44.885817,-63.51502,Air Canada Check in,NS,https://fastly.4sqi.net/img/general/original/15619140_KMvMIlU8UCfx_Dso1RDkYe3Rx8rDC8fSIYs-ITbh6TI.jpg,1.2,318,Airport Terminal,British Columia,1470
OPERATIONAL,"148 Lockview Rd, Fall River NS B2T 1J1",44.823414,-63.619543,Lockview High School,NS,https://fastly.4sqi.net/img/general/original/46038912_0StxRZfzXQVLPwBkhqecY_rYp40UL5R-NW7bH0fZ-Ys.jpg,3.3,446,Elementary School,British Columia,1070
OPERATIONAL,Halifax NS,44.79847,-63.601025,"Waverley, NS",NS,https://fastly.4sqi.net/img/general/original/27752301_1BDdRW7aKCR_NJbmz8Z2CgWoMeQsXYRT23vPuU7WvEQ.jpg,1.2,100,Lake,British Columia,1110
OPERATIONAL,"10 Cherry Brook Rd, Cherry Brook NS B2Z 1A8",44.703134,-63.471775,Black Cultural Centre for Nova Scotia,NS,https://fastly.4sqi.net/img/general/original/950149_eJI5FGXPl9K_j687U448stu7cDPIphnf0oIUjp1neio.jpg,4.5,494,History Museum,British Columia,700
OPERATIONAL,"250 Maple Hills Ave, Charlottetown PE C1C 1N2",46.285717,-63.131286,Charlottetown Airport,PE,https://fastly.4sqi.net/img/general/original/2421758_OCcQJyfViBNl2djNJn0E3Be8cKqHsRAzXwNMNBvkjIY.jpg,3.2,90,Airport Service,British Columia,810
OPERATIONAL,"35 Shubie Dr, Dartmouth NS B3B 0N4",44.70795,-63.56483,Residence Inn by Marriott Halifax Dartmouth,NS,https://fastly.4sqi.net/img/general/original/87388367_0NeBXZzkFM1z83jv7TChfJnmfm8jDvMGM4CAIbmeWZk.jpg,2.5,443,Lodging,British Columia,1500
OPERATIONAL,"70 Dorothea Dr, Dartmouth NS B2W 4M3",44.67727,-63.507487,Eric Graves Memorial Junior High School,NS,https://ticketshop.barcelona/images/sights-barcelona.jpg,3.9,364,Elementary School,British Columia,980
OPERATIONAL,"36 Duke St, Bedford NS B4A 2Z5",44.747138,-63.637294,Maritime Dance Academy,NS,https://fastly.4sqi.net/img/general/original/75425543_lJk71RNv0hsvtRfYfo0d9XKYWga97fEqoO1xL43YSOQ.jpg,2.8,71,Dance Studio,British Columia,1070
OPERATIONAL,"335 John Savage Ave, Dartmouth NS B3B 0J3",44.704763,-63.575073,"Holiday Inn Express & Suites Halifax – Dartmouth, an IHG Hotel",NS,https://fastly.4sqi.net/img/general/original/87388367_Q6er8ez7MFDFBtePZpWRoLnwpjZYaKzPkU5-VZLVi3A.jpg,2.2,368,Lodging,British Columia,200
OPERATIONAL,"Portland St, Dartmouth NS B2W 0A2",44.671377,-63.52576,Atlantic Superstore Gas Bar,NS,https://fastly.4sqi.net/img/general/original/100883_R0VeeKdiTWsY4TQLi6K-D0-qLt8uITISakz8NJDvBeA.jpg,2.6,75,Fuel Station,British Columia,1740
OPERATIONAL,Dartmouth NS,44.693198,-63.583391,Metro Transit Burnside Garage,NS,https://fastly.4sqi.net/img/general/original/56698630_i3J8HiEt2Eqqn2945eSyx1gh_hYYJOWEduAUwIWrukg.jpg,1.8,189,Bus Station,British Columia,1080
OPERATIONAL,"Albro Lake Rd, Dartmouth NS",44.686267,-63.579594,Albro Lake Beach,NS,https://fastly.4sqi.net/img/general/original/88761977_ItJdZs3tSry3IXm6fcpVog9Z_vMhDKuSHybtHCOsAlo.jpg,2.9,460,Beach,British Columia,350
OPERATIONAL,Dartmouth NS,44.684606,-63.589165,Highfield Terminal [Southbound],NS,https://fastly.4sqi.net/img/general/original/304497_8O_ufY-wFSTjM5agQQtX6k_Bi4y3zF0TT3AJ0e0zBP0.jpg,2.8,121,Travel and Transportation,British Columia,1490
OPERATIONAL,"112 Wyse Rd (at Nantucket Ave.), Dartmouth NS B3A 1M2",44.670613,-63.574553,Dartmouth Bridge Terminal,NS,https://ticketshop.barcelona/images/sights-barcelona.jpg,3.7,69,Bus Station,British Columia,1490
OPERATIONAL,"277 Pleasant St (Acadia St), Dartmouth NS B2Y 4B7",44.655788,-63.54922,Provincial Court,NS,https://ticketshop.barcelona/images/sights-barcelona.jpg,4.1,236,Courthouse,British Columia,710
OPERATIONAL,"Mawiomi Pl (Pleasant Street), Dartmouth NS",44.654021,-63.55214,NSCC Waterfront Cafeteria,NS,https://ticketshop.barcelona/images/sights-barcelona.jpg,2.3,161,College Cafeteria,British Columia,510
OPERATIONAL,"80 Mawiomi Pl, Halifax NS",44.65391,-63.552162,NSCC Waterfront Campus,NS,https://fastly.4sqi.net/img/general/original/51715839_jjen_mA7z9iaG6IbcrGyYoqQZXSp2-j04m81CF9cT3c.jpg,4.3,312,Education,British Columia,240
OPERATIONAL,"Nova Scotia 111, Halifax NS B2Y 3Y2",44.687614,-63.598926,A. Murray MacKay Bridge,NS,https://fastly.4sqi.net/img/general/original/7CIk6qHqW7XIMFg5f8OoZ4srlKTE5ZF-6MYA7Kzju_s.jpg,3.8,225,Bridge,British Columia,390
OPERATIONAL,"1260 Remembrance Ch, Montréal QC H3H 1A2",45.503951,-73.587551,Mount Royal Park (Parc du Mont-Royal),QC,https://fastly.4sqi.net/img/general/original/32552777_aIsP4guEeOhpHQmEbZT3IriHChXLs3q0jB-yHbgvQMw.jpg,2.2,377,Urban Park,Montreal,190
OPERATIONAL,"1196 Camillien-Houde Voie (Parc du Mont-Royal), Montréal QC H3H 1A1",45.503951,-73.587551,Chalet du Mont-Royal,QC,https://fastly.4sqi.net/img/general/original/3338793_MpiE30CDbQpsDtreLjxHDgtNxkOEervYX8e8rNZIHas.jpg,2.9,442,Monument,Montreal,490
OPERATIONAL,"1196 Camillien-Houde Voie, Montréal QC H3H 1A1",45.503339,-73.586901,Belvédère Kondiaronk,QC,https://fastly.4sqi.net/img/general/original/6411230_wDCgyGG8fYA-kXvueHOnh4I_lTB2ybA1h6OwLQa4TqM.jpg,2.7,498,Landmarks and Outdoors,Montreal,150
OPERATIONAL,"1380 Sherbrooke St W (coin du Musée), Montréal QC H3G 1J5",45.498492,-73.579481,Montreal Museum of Fine Arts (Musée des Beaux Arts de Montréal),QC,https://fastly.4sqi.net/img/general/original/216523_t3ga_0LzFq7NeWurB3IBB4_QEOZ9z-fST_PLI4G5te8.jpg,1.4,203,Museum,Montreal,1540
OPERATIONAL,Montréal QC H2J 2J9,45.516572,-73.584326,Parc Jeanne-Mance,QC,https://fastly.4sqi.net/img/general/original/EMndq6bX7TumGKclvyEHjCjkMFCvBCw-5jI8L2nDFJU.jpg,4.4,281,Park,Montreal,1580
OPERATIONAL,"175 Sainte-Catherine Rue O, Montréal QC H2X 1Z8",45.508022,-73.566179,Studio-Theatre de la Place des Arts,QC,https://fastly.4sqi.net/img/general/original/32888968_kkwKCtiyT9thA4JI4_M9hhoFjSzOESsAh_5DB_-_tk8.jpg,3.8,344,Performing Arts Venue,Montreal,900
OPERATIONAL,"3933 rue du Parc-Lafontaine (Rachel / Papineau / Sherbrooke / Parc Lafontaine), Montréal QC H2L 0C7",45.526246,-73.569666,Parc la Fontaine,QC,https://fastly.4sqi.net/img/general/original/10410333_tWM5n7kdWRkVcB3hWcETwXP2O52Cu6J8cVJajGAVLsI.jpg,4.3,296,Park,Montreal,1940
OPERATIONAL,Montréal QC H2J 3L8,45.531911,-73.587195,Parc Sir-Wilfrid-Laurier,QC,https://ticketshop.barcelona/images/sights-barcelona.jpg,2.2,337,Park,Montreal,850
OPERATIONAL,"en face du Parc Jeanne-Mance, Montréal QC",45.514397,-73.585128,Monument to Sir George-Étienne Cartier,QC,https://fastly.4sqi.net/img/general/original/83xttE5hWJM6-99j-TjHcnTJJtIb2lt1Ehq17crr7ao.jpg,1.5,446,Monument,Montreal,1380
OPERATIONAL,"110 Notre-Dame Rue O (coin St-Sulpice), Montréal QC H2Y 1T1",45.504477,-73.55609,Notre-Dame Basilica of Montréal (Basilique Notre-Dame de Montréal),QC,https://fastly.4sqi.net/img/general/original/182736_pHEJ7-x9n2F21qW8Sj5rtLnigBI7G0xQBprR-gr-pkQ.jpg,4.9,143,Building / Structure,Montreal,1060
OPERATIONAL,"84 Sainte-Catherine Rue O (coin St-Urbain), Montréal QC H2X 1Z6",45.508854,-73.564365,Théâtre du Nouveau Monde,QC,https://fastly.4sqi.net/img/general/original/NeLcxxkhJtTGEmZ7Luzm3VuANzsUHo2Pl9q7ceNUcDc.jpg,2.3,429,Ticket Seller,Montreal,1310
OPERATIONAL,Montréal QC,45.500788,-73.594954,Mont Royal,QC,https://fastly.4sqi.net/img/general/original/370594822_kq-0KVxCM3zLIzXbI2vCkFaP43mFmjMJIWSJ_chmqnA.jpg,1.5,311,Mountain,Montreal,570
OPERATIONAL,"St Denis St (entre St-Denis & avenue Laval), Montréal QC H2X 3L1",45.51692,-73.570047,Square Saint-Louis,QC,https://fastly.4sqi.net/img/general/original/WXPEDVHOMFX5EJFXBCPW4ZIEBQAZHZUJX325ODH0JYCOIYQ3.jpg,1.3,219,Urban Park,Montreal,1640
OPERATIONAL,"1909 des Canadiens-De-Montreal Ave (Rue de la Montagne), Montréal QC H3B 5E8",45.496084,-73.56943,Bell Centre (Centre Bell),QC,https://fastly.4sqi.net/img/general/original/21721526_rkFfhYgYDxHoGsLESszP3SFol3NRit6nxB6PDcHu_aY.jpg,3.7,244,Stadium,Montreal,1740
OPERATIONAL,"6105 Ave du Boisé (at avenue Van Horne), Montréal QC H3S 2V9",45.511155,-73.621157,Midtown le Sporting Club Sanctuaire,QC,https://fastly.4sqi.net/img/general/original/59721110__6KRCL1EAk86o0J7RovaI0TIi5-yQv9oIBmTQayeMT0.jpg,3.3,148,Gym and Studio,Montreal,1850
OPERATIONAL,"1 Gilles-Villeneuve Circt, Montréal QC H3C 1A9",45.503715,-73.528995,Parc Jean-Drapeau,QC,https://fastly.4sqi.net/img/general/original/1049233_EAmLXVtnEbJ3Dmgrak4hZRAmNjjR6SHzDDszdmPRSWk.jpg,4.4,315,Landmarks and Outdoors,Montreal,180
OPERATIONAL,"Rue de la Commune Est, Montréal QC",45.508711,-73.548959,Grande Roue de Montréal,QC,https://fastly.4sqi.net/img/general/original/8130239_unwfPbPSsUj25L8X4TPaJitR7uUzvTJj53GtPtHumT8.jpg,4.4,257,Amusement Park,Montreal,180
OPERATIONAL,"977 Sainte-Catherine Rue O (coin Metcalfe), Montréal QC H3B 4W3",45.501026,-73.572202,Cineplex Inc,QC,https://fastly.4sqi.net/img/general/original/16086703_CY5WxGu2-d4VCWGuLM4kOhddt854ycTZbOmHPeSY8Sw.jpg,3.4,479,Movie Theater,Montreal,810
OPERATIONAL,"421 Saint-Vincent Rue, Montréal QC H2Y 3A6",45.507315,-73.553419,Hotel William Gray,QC,https://ticketshop.barcelona/images/sights-barcelona.jpg,4.8,118,Hotel,Montreal,1020
OPERATIONAL,"1050 Rue de la Gauchetière Ouest (at Rue Peel), Montréal QC H3B 4C9",45.497599,-73.567541,Montreal Marriott Chateau Champlain,QC,https://fastly.4sqi.net/img/general/original/bMy7PTRXExD9R_S4A1fKGLgJZpXwwJZeUV155WgP-Sw.jpg,3.7,358,Hotel,Montreal,480
OPERATIONAL,"2 Rue de la Commune O (Boulevard St-Laurent), Montréal QC H2Y 4B2",45.50474,-73.551497,Montreal Science Centre (Montréal Science Centre),QC,https://ticketshop.barcelona/images/sights-barcelona.jpg,1.2,366,Museum,Montreal,1120
OPERATIONAL,"208 Saint Antoine Rue O, Montréal QC H2Y 0A6",45.504188,-73.55918,Embassy Suites by Hilton Montreal,QC,https://fastly.4sqi.net/img/general/original/87609967_F29aMenbjky7zXOdgSvzsL3swd03HWvlw0_mnGxAXps.jpg,4.8,270,Lodging,Montreal,1580
OPERATIONAL,"2313 Sainte-Catherine Rue O (Coin Atwater), Montréal QC H3H 1N2",45.490101,-73.584247,Cineplex Odeon Forum Cinemas,QC,https://fastly.4sqi.net/img/general/original/12518364_2yyl0ByhYFC_t4En6OuN2qo36_WHabJ392DYjnQ-reA.jpg,1.6,83,Movie Theater,Montreal,560
OPERATIONAL,"1390 Rene-Levesque Blvd O, Montréal QC H3G 0E3",45.495324,-73.573279,Holiday Inn & Suites Montreal Centre-Ville Ouest,QC,https://fastly.4sqi.net/img/general/original/87388367_fOHRVS0AfqKUXPhGXV581TGgGoqLVisFKqsTQLHaLjM.jpg,4.8,427,Lodging,Montreal,1410
OPERATIONAL,"1688 Ave du Mont Royal Est (Papineau), Montréal QC H2J 1Z5",45.532623,-73.574619,Gym du Plateau,QC,https://fastly.4sqi.net/img/general/original/68787171_RfikI2gM6NudU4xc1FiAvcYndxYbVQ1CYQyi4zDzCOQ.jpg,2.8,299,Gym and Studio,Montreal,620
OPERATIONAL,"4141 Pierre-De Coubertin Ave, Montréal QC H1V 3N7",45.559971,-73.551495,Parc Olympique,QC,https://ticketshop.barcelona/images/sights-barcelona.jpg,2.2,239,Swimming Pool,Montreal,1400
OPERATIONAL,"3400 des Trinitaires Blvd St, Montreal QC H4E 4J3",45.444536,-73.601834,Parc Angrignon,QC,https://fastly.4sqi.net/img/general/original/57725590_AL71E0wk8PLK4hPEYxEaDYYANjZFKziSsmcLy6skQ_Q.jpg,1.4,138,Park,Montreal,1720
OPERATIONAL,"300 Bridge Rue (coin Mill), Montréal QC H3K 2C3",45.486396,-73.551355,Costco Gasoline (Costco Essence),QC,https://fastly.4sqi.net/img/general/original/10794308_Z0h1kZ3LbZehfzLWjjUl9AuORmiDmzaNs5yIMPc0UsU.jpg,2.1,441,Fuel Station,Montreal,870
OPERATIONAL,"1201 Rene-Levesque Blvd W (coin Stanley), Montréal QC H3B 2L7",45.497859,-73.57152,Le Centre Sheraton Montreal Hotel,QC,https://fastly.4sqi.net/img/general/original/83472230_veDHUoA2s925j8_GceSKnD_qarGCA60CEBJ7D0S1LuM.jpg,4.3,236,Lodging,Montreal,1860
OPERATIONAL,"2425 Gouin Blvd E (Rue Papineau), Montréal QC H2B 1X7",45.578625,-73.655992,Parc-nature de l'Île de la Visitation,QC,https://fastly.4sqi.net/img/general/original/TPAK98SbDwLvDMJLFhCX8g8RNUYcWcK3igD-ViTCaOU.jpg,1.6,224,Park,Montreal,290
OPERATIONAL,"160 Ch du Tour-De-L'îsle (Parc Jean-Drapeau), Montréal QC H3C 4G8",45.514061,-73.531496,Biosphère,QC,https://fastly.4sqi.net/img/general/original/31705704_Ird6D7MJe99hyQPtFutPz3sGwnrIo9I8EDcDaxwKwFE.jpg,2.1,311,Science Museum,Montreal,1450
OPERATIONAL,"1255 Jeanne Mance St, Montréal QC H5B 1E5",45.507145,-73.564601,DoubleTree by Hilton Montreal,QC,https://fastly.4sqi.net/img/general/original/83184455_Wt2Q13VseFXhCn_nV7WcApCgkpHc2gvVvAcuHvhpluY.jpg,4.3,50,Lodging,Montreal,1330
OPERATIONAL,"btwn Thimens & Poirier, Saint-Laurent QC",45.507665,-73.705611,Parc Marcel-Laurin,QC,https://ticketshop.barcelona/images/sights-barcelona.jpg,3.1,368,Soccer Field,Montreal,1270
OPERATIONAL,"380 Sherbrooke St W (Rue de Bleury), Montréal QC H3A 0B1",45.507575,-73.571395,Hilton Garden Inn Montreal,QC,https://fastly.4sqi.net/img/general/original/18943778_aCsNcUHX0wEn7yjt9D0GoNy-pVCJokwNGzmGa8j7bbc.jpg,2.9,70,Hotel,Montreal,790
OPERATIONAL,"5800 Christophe-Colomb Ave (Boulevard Rosemont), Montréal QC H2S 2G2",45.534869,-73.595384,Esso,QC,https://ticketshop.barcelona/images/sights-barcelona.jpg,3.1,393,Fuel Station,Montreal,1730
OPERATIONAL,"1250 Robert-Bourassa Blvd, Montréal QC H3B 3B8",45.502733,-73.569303,Renaissance Montreal Downtown Hotel,QC,https://fastly.4sqi.net/img/general/original/87388367_CVwKtAum-SEtkuhC2T9EBvOZoxIkYm-bRAu5_P_4H_4.jpg,4.9,372,Lodging,Montreal,410
OPERATIONAL,"350 Saint Paul Rue E, Montréal QC H2Y 1H2",45.508886,-73.55158,Marché Bonsecours,QC,https://fastly.4sqi.net/img/general/original/134846_hfhl4sqxbyLNx9zgaJllOM-X3cThiiSJhw_bgbrIpgE.jpg,3.7,235,Community and Government,Montreal,1170
OPERATIONAL,Verdun QC,45.447016,-73.558288,Park Maynard-Ferguson,QC,https://fastly.4sqi.net/img/general/original/1573386_NanvAvOzpdtYjBPPOHyNXhG-a2P59_ijL5pz0QJ3cRY.jpg,3.9,197,Park,Montreal,1520
OPERATIONAL,"3841 Wellington Rue (coin Hickson), Montréal QC H4G 1V1",45.465408,-73.566951,Energie Cardio,QC,https://fastly.4sqi.net/img/general/original/99497981_LMF3vkgdY9SvjXau-iSgZSlf6yYYC5rPGUsi1HulHWo.jpg,1.7,497,Gym and Studio,Montreal,370
OPERATIONAL,Montréal QC,45.55927,-73.599912,STM Station Saint-Michel,QC,https://fastly.4sqi.net/img/general/original/60338260_gFJh6jcuw5wU_QOGeCRy2jCUmwXnDhtrc-9BKWVCCfg.jpg,4.4,366,Travel and Transportation,Montreal,310
OPERATIONAL,"4690 Ch de la Côte-des-Neiges, Montréal QC H3V 1E9",45.495539,-73.609842,Shell,QC,https://fastly.4sqi.net/img/general/original/bsECw85LtYSeVsTjAoofcZTz5HhUsOqTm1aXHtnpA6c.jpg,3.5,374,Fuel Station,Montreal,1490
OPERATIONAL,"1390 de l'Eglise Ave (de laverendrie), Montreal QC H4E 1G1",45.463012,-73.581438,Esso,QC,https://ticketshop.barcelona/images/sights-barcelona.jpg,3.9,343,Fuel Station,Montreal,450
OPERATIONAL,"1125 Rue de l'Église, Verdun QC H4G 2N9",45.463413,-73.578451,Shell,QC,https://fastly.4sqi.net/img/general/original/1KQDdPIMZ7i4GCS80B6QnyRg7EVhgpRV9_t_9LgdY6M.jpg,1.8,88,Fuel Station,Montreal,1860
OPERATIONAL,"2275 Saint-Joseph Blvd E (Metro Laurier, autobus 27), Montréal QC H2H 1G4",45.539868,-73.576014,Centre du Plateau,QC,https://ticketshop.barcelona/images/sights-barcelona.jpg,2.6,132,Non-Profit Organization,Montreal,320
OPERATIONAL,Montréal QC H3A 1N4,45.500923,-73.574475,STM Station Peel,QC,https://fastly.4sqi.net/img/general/original/26180182_TmgjxW3oaR78eG3zHCwUQ8SXRk0xKDEbhYh05qt3DeA.jpg,3.1,468,Travel and Transportation,Montreal,140
OPERATIONAL,"1455 Blvd de Maisonneuve Ouest (rue Mackay), Montréal QC H3G 1M8",45.497201,-73.578714,Concordia University - Hall Building,QC,https://fastly.4sqi.net/img/general/original/195124_rrxWKnDY5qxwNaCMIOaQZ-hMMdV9WqPzjlrtgtzOJUU.jpg,2.8,466,College Academic Building,Montreal,270
OPERATIONAL,"1455 Blvd de Maisonneuve O (btwn rue Mackay & rue Bishop), Montréal QC H3G 1M8",45.49709,-73.578613,Concordia University Sir George Williams Campus,QC,https://fastly.4sqi.net/img/general/original/8104776_MZhIKw5R4WFO-Xm0WSkDntIzPbxYLU156J9XjmSkOKE.jpg,1.9,119,College and University,Montreal,340
OPERATIONAL,Montréal QC,45.50821,-73.568122,STM Station de la Place-des-Arts,QC,https://fastly.4sqi.net/img/general/original/17660268_yMgNDcudbrwZmmIbgDlMVzCszp2WA2KzetotIOfDYB8.jpg,3.6,340,Metro Station,Montreal,1850
OPERATIONAL,"10 Blvd de Maisonneuve Est (rue Saint-Dominique), Montréal QC H2X 1J5",45.510834,-73.564863,STM Station Saint-Laurent,QC,https://fastly.4sqi.net/img/general/original/52035_DrS0o5Ba1yOzZYHczK9ezBvS410FGmfqQ43cAtwnvco.jpg,2.4,247,Metro Station,Montreal,1520
OPERATIONAL,Montréal QC H2X 3K8,45.518318,-73.568347,STM Station Sherbrooke,QC,https://fastly.4sqi.net/img/general/original/nlGWUT6aHDPz2KE64G8ZiK2h1F5oigrMRaQ5FGzJNZI.jpg,4.6,458,Travel and Transportation,Montreal,140
OPERATIONAL,"555 Main St (at Market Ave.), Winnipeg MB R3B 1C3",49.899435,-97.137127,Centennial Concert Hall,MB,https://fastly.4sqi.net/img/general/original/6902808_j4C4FgJqlioI8DHfy_8ryNySyqAmTFBccrFLXJw6SSY.jpg,1.2,374,Concert Hall,Manitoba,760
OPERATIONAL,"1390 Taylor Ave, Winnipeg MB R3M 3V8",49.85034,-97.183436,Reh-Fit Centre,MB,https://fastly.4sqi.net/img/general/original/55844990_D20V4feRqv2VGb7VM_znLZ5BxBTw966OqmUanLq2vKY.jpg,3.7,288,Gym and Studio,Manitoba,1830
OPERATIONAL,"958 Ferry Rd (North of Ellice Ave), Winnipeg MB R3H 0Y8",49.895835,-97.221085,Royal Aviation Museum of Western Canada,MB,https://fastly.4sqi.net/img/general/original/26860657_LRfWaXWL6h32Qvwuj3hieu8MF4bzi5BQGk14PHeOaqs.jpg,4.2,453,Museum,Manitoba,1770
OPERATIONAL,"222 Broadway (btw Fort & Garry), Winnipeg MB R3C 0R3",49.88801,-97.136764,Fort Garry Hotel,MB,https://fastly.4sqi.net/img/general/original/4220371_4sFulibLu_X-27zAri-G59ZhKswXlCDF6CBjqkidva4.jpg,3.7,56,Hotel,Manitoba,1070
OPERATIONAL,"300 Memorial Blvd (St. Mary Ave), Winnipeg MB R3C 1V1",49.889438,-97.150487,Winnipeg Art Gallery,MB,https://fastly.4sqi.net/img/general/original/40772270_qASh2T7aKt9je-G5W1wxl5yeKdySGK67BeHqS1oCxo4.jpg,1.8,488,Art Gallery,Manitoba,1990
OPERATIONAL,"4100 Portage Ave, Headingley MB R4H 1C5",49.877586,-97.339524,Flying J Travel Plaza,MB,https://fastly.4sqi.net/img/general/original/yx45vIEv5tyIoApSVko-lUNvrio-VZsodKndDKBoJec.jpg,2.2,117,Convenience Store,Manitoba,430
OPERATIONAL,"1120 Grant Ave (Grant Park Shopping Centre), Winnipeg MB R3M 2A6",49.857127,-97.164528,Landmark Cinemas 8 Grant Park,MB,https://fastly.4sqi.net/img/general/original/78253679_gMj5I11dqRuEwGOzRnJZwwYKOwAySnSIvUEWlu23fFk.jpg,2.1,123,Movie Theater,Manitoba,1010
OPERATIONAL,"460 Assiniboine Park Dr (at Zoo Dr.), Winnipeg MB R3P 2N7",49.874308,-97.240245,Assiniboine Park Zoo,MB,https://fastly.4sqi.net/img/general/original/18000455_jZ_qNqFCGBqsaKd117GduRcBcTYJS94NS-ml_15ze_M.jpg,3.2,169,Zoo,Manitoba,1420
OPERATIONAL,"2190 McGillivray Blvd (at Columbia Dr.), Winnipeg MB R3Y 1S6",49.819458,-97.203763,Cineplex Inc,MB,https://fastly.4sqi.net/img/general/original/857502_ZOaAqJsGWBU_WeoC4IAL11vjGqZWjLrdJ10wfmxKGHY.jpg,2.2,101,Movie Theater,Manitoba,530
OPERATIONAL,"350 St Mary Ave (btwn Hargrave & Carlton), Winnipeg MB R3C 3J2",49.890061,-97.1436,Delta Hotels by Marriott Winnipeg,MB,https://fastly.4sqi.net/img/general/original/31887071_yi-cpdYdC6zU2MhLJJgrRf9jjxI9p7K9EcrDrFvEo4A.jpg,3.1,101,Lodging,Manitoba,820
OPERATIONAL,"2305 McPhillips St, Winnipeg MB R2V 3E1",49.950745,-97.144544,Goodlife Fitness,MB,https://fastly.4sqi.net/img/general/original/17263275_HWB9DCEjom0nDNQbmXV6TYGbN6VQ8K7CQGLWD-nRLws.jpg,1.8,391,Gym and Studio,Manitoba,570
OPERATIONAL,"Waterfront Dr, Winnipeg MB",49.896574,-97.133754,Stephen Juba Park,MB,https://fastly.4sqi.net/img/general/original/12299592_7MnjrYmw8_IWl3uWx4PNSJuAARCvid44yKtTm5_WiE0.jpg,1.5,78,Park,Manitoba,220
OPERATIONAL,"345 Osborne St (at Mulvey Ave.), Winnipeg MB R3L 2A2",49.871707,-97.14059,Red River Co-Operative Ltd,MB,https://fastly.4sqi.net/img/general/original/12299592_tl4Bs3sDATiFQB9SymdPPfVI2ldkKqMMTRPBP7d0wuc.jpg,4.6,154,Fuel Station,Manitoba,1090
OPERATIONAL,"21 Lakewood Blvd, Winnipeg MB R2J 2M8",49.855007,-97.078165,Shell,MB,https://ticketshop.barcelona/images/sights-barcelona.jpg,3.3,343,Fuel Station,Manitoba,820
OPERATIONAL,"300 Newmarket Blvd, Winnipeg MB R3T 6G7",49.818998,-97.169861,Goodlife Fitness Winnipeg Refinery District,MB,https://ticketshop.barcelona/images/sights-barcelona.jpg,2.4,166,Gym and Studio,Manitoba,370
OPERATIONAL,"1120 Grant Ave, Winnipeg MB R3M 2A6",49.856581,-97.167382,GoodLife Fitness Winnipeg Grant Park Shopping Centre,MB,https://ticketshop.barcelona/images/sights-barcelona.jpg,1.7,233,Gym and Studio,Manitoba,810
OPERATIONAL,"1425 Regent Ave W, Winnipeg MB R2C 3B2",49.896757,-97.045041,Club Regent Casino,MB,https://fastly.4sqi.net/img/general/original/55312949_MkTqv2sLQl_-cf6soyxRkcxTbdJaakCko7DVyPntfHk.jpg,4.8,349,Casino,Manitoba,1100
OPERATIONAL,"1188 Dakota St, Winnipeg MB R2N 3H4",49.819145,-97.100886,Dakota Nursery School,MB,https://fastly.4sqi.net/img/general/original/127777976_qSVnx1Zm-RbbquzJ7N-tGRIInZBXgi7xh2p5_4KWyl0.jpg,4.5,143,Nursery School,Manitoba,660
OPERATIONAL,"1415 Regent Ave W, Winnipeg MB R2C 3B2",49.8969,-97.043366,Canad Inns Destination Centre Club Regent Casino Hotel,MB,https://fastly.4sqi.net/img/general/original/415411_4mZMqIX85kJZ-FCJgcC-AIv8dYrwSk6x_e7K1m39ttM.jpg,3.9,60,Hotel,Manitoba,1740
OPERATIONAL,"2000 Wellington Ave, Winnipeg MB R3H 1C2",49.903215,-97.226562,Winnipeg James Armstrong Richardson International Airport (YWG),MB,https://fastly.4sqi.net/img/general/original/32779120_fQIJzKHq9NF3m7KZLv1BVvT6O28K4eLXGqVC5JQi3vo.jpg,3.8,123,International Airport,Manitoba,250
OPERATIONAL,"1761 Sargent Ave, Winnipeg MB R3H 0C6",49.89831,-97.206862,Esso,MB,https://ticketshop.barcelona/images/sights-barcelona.jpg,3.2,293,Fuel Station,Manitoba,1510
OPERATIONAL,"2935 Pembina Hwy, Winnipeg MB R3T 2H5",49.786787,-97.157984,Four Points by Sheraton Winnipeg South,MB,https://fastly.4sqi.net/img/general/original/87388367_LCmC8AJwKH6B-gm1Vwk8SI1Hw-12RIw1gf49d5R-NNo.jpg,1.1,413,Lodging,Manitoba,1300
OPERATIONAL,"3009 Pembina Hwy, Winnipeg MB R3T 2H5",49.783338,-97.157661,Esso,MB,https://fastly.4sqi.net/img/general/original/12299592_Dr8SGVzPK5RJpw9rs24XrSsvi2wwomTllt_7pM6EStg.jpg,1.3,317,Fuel Station,Manitoba,450
OPERATIONAL,"121 Scurfield Fort Gry (at Henlow Bay), Winnipeg MB R3Y 1G4",49.817416,-97.194025,Triple B's Restaurant Bar & Billiard's,MB,https://fastly.4sqi.net/img/general/original/5I44OHF510HRDQGU0UO2O4KXKQIH5FDHTJ10UEWVPP1WA3EC.jpg,3.7,365,Pool Hall,Manitoba,330
OPERATIONAL,"2501 Portage Ave, Winnipeg MB R3J 0N7",49.875411,-97.257127,Shell,MB,https://fastly.4sqi.net/img/general/original/12281387_Kz-C6uB8AFfx6TiLdciMlrlyXSclRLoHPa7fEYArewU.jpg,3.1,403,Fuel Station,Manitoba,1170
OPERATIONAL,"45 Forks Market Rd (at The Forks), Winnipeg MB R3C 4T6",49.887559,-97.128385,Manitoba Children's Museum,MB,https://fastly.4sqi.net/img/general/original/43pLFwohpgI1X88ndpwLH_D6cG_aOcL-FsqaeTfo70g.jpg,1.8,472,Museum,Manitoba,580
OPERATIONAL,"100 Highland Ave (@ 1st St N), Brandon MB R7C 1A9",49.886156,-99.940393,Petro-Canada EV Fast Charging Station,MB,https://fastly.4sqi.net/img/general/original/lKmwlFECU7l1Jmym46qjc9UQjf2LH24q8xZszwgi8NA.jpg,4.1,280,Fuel Station,Manitoba,570
OPERATIONAL,"YWG, Winnipeg MB R3H 1C2",49.906196,-97.225993,Maple Leaf Lounge,MB,https://fastly.4sqi.net/img/general/original/11097757_oaVh2oU4XYHMM6BkLf1uo-dLPPYcMBu5kZHD1wbmusI.jpg,3.3,402,Airport Lounge,Manitoba,1600
OPERATIONAL,"288 Portage Ave, Winnipeg MB R3C 0B8",49.89372,-97.142509,Radisson Hotel Winnipeg Downtown,MB,https://fastly.4sqi.net/img/general/original/878321_If0lPN5WfguDjHRK6se8AW6EH18Z8lT-CYT882YKcTg.jpg,3.2,279,Lodging,Manitoba,180
OPERATIONAL,"390 Main St, Stonewall MB R0C 2Z0",50.133564,-97.326104,Rockwood Motor Inn & Motel,MB,https://ticketshop.barcelona/images/sights-barcelona.jpg,1.9,431,Hotel,Manitoba,570
OPERATIONAL,"491 4th St SE (at 3rd Ave. S.), Stonewall MB R0C 2Z0",50.130796,-97.322314,Red River Co-op,MB,https://fastly.4sqi.net/img/general/original/21648175_G8F9ZC62d4HeGB64rn5NFl0dJGYQ6IXowjuQu4_Hvco.jpg,3.8,177,Fuel Station,Manitoba,1430
OPERATIONAL,"3199 Main St (North Perimeter Hwy), Winnipeg MB",49.968547,-97.067827,North Perimeter Park,MB,https://fastly.4sqi.net/img/general/original/415411_6JcItHC93QNYGJbdMmNKnDuoX0oESn86JrAsAUfKJQM.jpg,3.7,320,Park,Manitoba,840
OPERATIONAL,"725 Kingsbury Ave, Winnipeg MB R2V 3H9",49.947469,-97.138703,Garden City Community Centre and Soccer Complex,MB,https://fastly.4sqi.net/img/general/original/Pyj6VVkZiUR6hc0Lr2CbWspSs9gtZS5aKQsvc_s9QLU.jpg,2.7,326,Community Center,Manitoba,1040
OPERATIONAL,"1315 Gateway Rd, Winnipeg MB R2G 1G5",49.934503,-97.062535,North Kildonan Mennonite Brethren Church,MB,https://fastly.4sqi.net/img/general/original/526808_tN053GFPIapRCXMLxZg12MGhUxo_id-WYfvZ__Ydh1k.jpg,2.8,430,Church,Manitoba,1040
OPERATIONAL,"490 Sinclair St, Winnipeg MB R2X 1Y3",49.931048,-97.150408,Sinclair Park Community Centre,MB,https://fastly.4sqi.net/img/general/original/mk2JtbT11HXJxKxmdD21bca_39YT3PLMBPwYkrllJVE.jpg,2.3,287,Recreation Center,Manitoba,980
OPERATIONAL,"2340 Burrows Ave (at Benbow Rd.), Winnipeg MB R2R 1W1",49.939469,-97.21561,Garden Grove School,MB,https://ticketshop.barcelona/images/sights-barcelona.jpg,1.2,280,Elementary School,Manitoba,1170
OPERATIONAL,"737 Keewatin St, Winnipeg MB R2X 3B9",49.935813,-97.194521,Philippine Canadian Centre of Manitoba Inc,MB,https://ticketshop.barcelona/images/sights-barcelona.jpg,1.8,428,Community Center,Manitoba,100
OPERATIONAL,"343 Munroe Ave, Winnipeg MB R2K 1H2",49.919837,-97.103086,St Alphonsus School,MB,https://fastly.4sqi.net/img/general/original/76523272_SDHwWK0lLUNxgDx5DIXySJ1lWYdchEFFy8eLTNIPcs8.jpg,2.4,197,Primary and Secondary School,Manitoba,1640
OPERATIONAL,"460 Munroe Ave, Winnipeg MB R2K 1H4",49.917888,-97.099507,Holy Eucharist Parish Centre,MB,https://fastly.4sqi.net/img/general/original/49746837_4nCboljnr9I2Ai-QeJXkRHwjq8HekY5WXp9AebS8ojA.jpg,4.6,418,Church,Manitoba,150
OPERATIONAL,"846 Burrows Ave (btwn Artillery & Sinclair St.), Winnipeg MB R2X 0R4",49.922967,-97.157687,St John Cantius Church,MB,https://fastly.4sqi.net/img/general/original/16110240_KmrhueRcGfTttu42r8QvGTthP-AyGZG3qm1iS_IQtfw.jpg,1.1,453,Church,Manitoba,670
OPERATIONAL,"300 Brazier St (@ Harbison Ave. W.), Winnipeg MB R2L 1P3",49.916047,-97.109503,Elmwood Curling Club,MB,https://ticketshop.barcelona/images/sights-barcelona.jpg,1.3,378,Curling Ice,Manitoba,650
OPERATIONAL,"1499 Regent Ave W (Peguis Street), Winnipeg MB R2C 4M4",49.896258,-97.053549,Costco Gas,MB,https://fastly.4sqi.net/img/general/original/127777976_JQnt4QuOYddTEP-5dEfnn8XNRepTowDyygU0ZUNTtZc.jpg,2.4,373,Fuel Station,Manitoba,1790
OPERATIONAL,"1150 Nairn Ave (at Stapleton St.), Winnipeg MB R2L 0Y5",49.899349,-97.075297,Shapes,MB,https://fastly.4sqi.net/img/general/original/66700050_jCk3gJJGpTSDE42GksySOexO8rQty7DsTZSfbgj5-Ew.jpg,2.2,442,Gym and Studio,Manitoba,1050
OPERATIONAL,"95 Bournais Dr (at Rougeau Ave), Winnipeg MB R2C 3Z2",49.890338,-97.043389,Bernie Wolfe Community School,MB,https://ticketshop.barcelona/images/sights-barcelona.jpg,1.1,325,Elementary School,Manitoba,1760
OPERATIONAL,Winnipeg MB,49.899582,-97.137824,Winnipeg Transit Bus Stop,MB,https://ticketshop.barcelona/images/sights-barcelona.jpg,3.7,288,Bus Station,Manitoba,1020
OPERATIONAL,"836 Arlington St, Winnipeg MB R3E 2E4",49.902664,-97.168783,St Edward's School,MB,https://fastly.4sqi.net/img/general/original/16110240_KyYIf8ubx3SEzpzZAd0A0oT8N9UIeLBhyE-9-JGQTxk.jpg,4.1,288,Primary and Secondary School,Manitoba,1150
OPERATIONAL,Winnipeg MB,49.906749,-97.227329,Air Canada Flight AC 270,MB,https://ticketshop.barcelona/images/sights-barcelona.jpg,3.3,187,Airport,Manitoba,1290
OPERATIONAL,"311 Hargrave St, Winnipeg MB R3B 0V8",49.894028,-97.144629,Glasshouse Skylofts,MB,https://fastly.4sqi.net/img/general/original/424534_VZCcOypIBKYWATuqdE7KiD9TyFpHAEPB2GhvBxV8JWs.jpg,3.1,208,Residential Building,Manitoba,400
OPERATIONAL,"999 Sargent Ave (at Minto Street), Winnipeg MB R3E 3K6",49.897608,-97.180578,West End Library Branch,MB,https://fastly.4sqi.net/img/general/original/37142713_UdP5iFR8Dzffsbi2VkzayCbFajNbjRGNbXExH82X-1A.jpg,4.4,156,Library,Manitoba,1770
OPERATIONAL,"190 de la Cathedrale Ave (at Tache Ave.), Winnipeg MB R2H 0H7",49.889439,-97.121672,Cathedrale de Saint-Boniface,MB,https://fastly.4sqi.net/img/general/original/30926605_8YdUQSdMgFJz-XyiBE2AzoHmBliw3LK2BUs-tfYYxLc.jpg,4.8,461,Church,Manitoba,1270
OPERATIONAL,"555 Main St (at Market Ave.), Winnipeg MB R3B 1C3",49.899435,-97.137127,Centennial Concert Hall,MB,https://fastly.4sqi.net/img/general/original/44135318_NOyUEP0lVXP3mmqyafyJnGUn5YZOjwjLmdjUS4g1fXQ.jpg,4.9,397,Concert Hall,Newfoundland and labrador,580
OPERATIONAL,"1390 Taylor Ave, Winnipeg MB R3M 3V8",49.85034,-97.183436,Reh-Fit Centre,MB,https://fastly.4sqi.net/img/general/original/55844990_D20V4feRqv2VGb7VM_znLZ5BxBTw966OqmUanLq2vKY.jpg,3.6,233,Gym and Studio,Newfoundland and labrador,1510
OPERATIONAL,"958 Ferry Rd (North of Ellice Ave), Winnipeg MB R3H 0Y8",49.895835,-97.221085,Royal Aviation Museum of Western Canada,MB,https://fastly.4sqi.net/img/general/original/26860657_LRfWaXWL6h32Qvwuj3hieu8MF4bzi5BQGk14PHeOaqs.jpg,1.6,142,Museum,Newfoundland and labrador,1500
OPERATIONAL,"222 Broadway (btw Fort & Garry), Winnipeg MB R3C 0R3",49.88801,-97.136764,Fort Garry Hotel,MB,https://fastly.4sqi.net/img/general/original/-k7wz6XmgCwYho-OR0TOZMeIfs4y6866mcaxxIF3mHk.jpg,3.2,388,Hotel,Newfoundland and labrador,770
OPERATIONAL,"300 Memorial Blvd (St. Mary Ave), Winnipeg MB R3C 1V1",49.889438,-97.150487,Winnipeg Art Gallery,MB,https://ticketshop.barcelona/images/sights-barcelona.jpg,4.8,139,Art Gallery,Newfoundland and labrador,1490
OPERATIONAL,"4100 Portage Ave, Headingley MB R4H 1C5",49.877586,-97.339524,Flying J Travel Plaza,MB,https://fastly.4sqi.net/img/general/original/yx45vIEv5tyIoApSVko-lUNvrio-VZsodKndDKBoJec.jpg,1.9,476,Convenience Store,Newfoundland and labrador,510
OPERATIONAL,"1120 Grant Ave (Grant Park Shopping Centre), Winnipeg MB R3M 2A6",49.857127,-97.164528,Landmark Cinemas 8 Grant Park,MB,https://fastly.4sqi.net/img/general/original/78253679_gMj5I11dqRuEwGOzRnJZwwYKOwAySnSIvUEWlu23fFk.jpg,4.5,181,Movie Theater,Newfoundland and labrador,1420
OPERATIONAL,"460 Assiniboine Park Dr (at Zoo Dr.), Winnipeg MB R3P 2N7",49.874308,-97.240245,Assiniboine Park Zoo,MB,https://fastly.4sqi.net/img/general/original/2921272_GqkHqEjPa5WSw0LxHudOQcISY3BeCAbIPvxe4zKvIYE.jpg,4.4,131,Zoo,Newfoundland and labrador,630
OPERATIONAL,"2190 McGillivray Blvd (at Columbia Dr.), Winnipeg MB R3Y 1S6",49.819458,-97.203763,Cineplex Inc,MB,https://fastly.4sqi.net/img/general/original/44135318_MALPlHjiMOk6O1KSAlkfiPUq12WWr-vDiJZtk1A-9Ag.jpg,1.4,133,Movie Theater,Newfoundland and labrador,950
OPERATIONAL,"350 St Mary Ave (btwn Hargrave & Carlton), Winnipeg MB R3C 3J2",49.890061,-97.1436,Delta Hotels by Marriott Winnipeg,MB,https://fastly.4sqi.net/img/general/original/1kd4JtE7DXrFB8f9Ae3CnU2FkcY71GuMs8xVS0FTsdg.jpg,3.4,364,Lodging,Newfoundland and labrador,2000
OPERATIONAL,"2305 McPhillips St, Winnipeg MB R2V 3E1",49.950745,-97.144544,Goodlife Fitness,MB,https://fastly.4sqi.net/img/general/original/17263275_HWB9DCEjom0nDNQbmXV6TYGbN6VQ8K7CQGLWD-nRLws.jpg,3.1,61,Gym and Studio,Newfoundland and labrador,1390
OPERATIONAL,"Waterfront Dr, Winnipeg MB",49.896574,-97.133754,Stephen Juba Park,MB,https://ticketshop.barcelona/images/sights-barcelona.jpg,4.1,414,Park,Newfoundland and labrador,220
OPERATIONAL,"345 Osborne St (at Mulvey Ave.), Winnipeg MB R3L 2A2",49.871707,-97.14059,Red River Co-Operative Ltd,MB,https://fastly.4sqi.net/img/general/original/12299592_tl4Bs3sDATiFQB9SymdPPfVI2ldkKqMMTRPBP7d0wuc.jpg,3.4,260,Fuel Station,Newfoundland and labrador,1920
OPERATIONAL,"21 Lakewood Blvd, Winnipeg MB R2J 2M8",49.855007,-97.078165,Shell,MB,https://ticketshop.barcelona/images/sights-barcelona.jpg,3.2,125,Fuel Station,Newfoundland and labrador,450
OPERATIONAL,"300 Newmarket Blvd, Winnipeg MB R3T 6G7",49.818998,-97.169861,Goodlife Fitness Winnipeg Refinery District,MB,https://ticketshop.barcelona/images/sights-barcelona.jpg,1.9,409,Gym and Studio,Newfoundland and labrador,610
OPERATIONAL,"1120 Grant Ave, Winnipeg MB R3M 2A6",49.856581,-97.167382,GoodLife Fitness Winnipeg Grant Park Shopping Centre,MB,https://ticketshop.barcelona/images/sights-barcelona.jpg,4.7,362,Gym and Studio,Newfoundland and labrador,620
OPERATIONAL,"1425 Regent Ave W, Winnipeg MB R2C 3B2",49.896757,-97.045041,Club Regent Casino,MB,https://fastly.4sqi.net/img/general/original/12630657_72qRGPr7YTD1TEtQ5IcoGgwt6iMCXnNYLh8YnF6cqTs.jpg,3.7,129,Casino,Newfoundland and labrador,1180
OPERATIONAL,"1188 Dakota St, Winnipeg MB R2N 3H4",49.819145,-97.100886,Dakota Nursery School,MB,https://fastly.4sqi.net/img/general/original/tHd22ogZ2ATZxemgUBydH7O0_ONAH4-IBJrXc4wq0Ps.jpg,4.1,178,Nursery School,Newfoundland and labrador,190
OPERATIONAL,"1415 Regent Ave W, Winnipeg MB R2C 3B2",49.8969,-97.043366,Canad Inns Destination Centre Club Regent Casino Hotel,MB,https://fastly.4sqi.net/img/general/original/4iP449LGGg9kMlm595SRN0DKAkCA7yVvS2A63r2Txxk.jpg,3.7,68,Hotel,Newfoundland and labrador,550
OPERATIONAL,"2000 Wellington Ave, Winnipeg MB R3H 1C2",49.903215,-97.226562,Winnipeg James Armstrong Richardson International Airport (YWG),MB,https://fastly.4sqi.net/img/general/original/38330785_PEPHTFBB3m_jSZ2BoPCiV9NuJ5MN815wHlNNKE7ZBIw.jpg,1.4,255,International Airport,Newfoundland and labrador,1120
OPERATIONAL,"1761 Sargent Ave, Winnipeg MB R3H 0C6",49.89831,-97.206862,Esso,MB,https://fastly.4sqi.net/img/general/original/562094_F2Hnb2s7pL_OYrkfErm2yRrut-nHakResV_HoY7_A8Y.jpg,3.9,465,Fuel Station,Newfoundland and labrador,1140
OPERATIONAL,"2935 Pembina Hwy, Winnipeg MB R3T 2H5",49.786787,-97.157984,Four Points by Sheraton Winnipeg South,MB,https://ticketshop.barcelona/images/sights-barcelona.jpg,3.3,419,Lodging,Newfoundland and labrador,490
OPERATIONAL,"3009 Pembina Hwy, Winnipeg MB R3T 2H5",49.783338,-97.157661,Esso,MB,https://fastly.4sqi.net/img/general/original/12299592_Dr8SGVzPK5RJpw9rs24XrSsvi2wwomTllt_7pM6EStg.jpg,3.4,484,Fuel Station,Newfoundland and labrador,1710
OPERATIONAL,"121 Scurfield Fort Gry (at Henlow Bay), Winnipeg MB R3Y 1G4",49.817416,-97.194025,Triple B's Restaurant Bar & Billiard's,MB,https://ticketshop.barcelona/images/sights-barcelona.jpg,2.7,432,Pool Hall,Newfoundland and labrador,230
OPERATIONAL,"2501 Portage Ave, Winnipeg MB R3J 0N7",49.875411,-97.257127,Shell,MB,https://fastly.4sqi.net/img/general/original/12281387_Kz-C6uB8AFfx6TiLdciMlrlyXSclRLoHPa7fEYArewU.jpg,2.6,250,Fuel Station,Newfoundland and labrador,980
